"AIRPORT_CODE","CITY","STATE","METRO_AREA","FACILITY_NAME","LONGITUDE","LATITUDE","AIR_SERVICE","CBSA_CODE","CBSA_TYPE",
"","Alpine","WY","","",-111.021764,43.121597,3,,0,
"","Jackson","WY","Jackson WY-ID","",-110.798453,43.482949,0,27220,2,
"","Evanston","WY","Evanston WY","Kiks Chevron",-110.958000,41.263400,3,21740,2,
"","Rock Springs","WY","Rock Springs WY","Greyhound Bus Station",-109.264000,41.575600,0,40540,2,
"","Buffalo","WY","","Kum & Go",-106.691000,44.354200,3,,0,
"","Sheridan","WY","Sheridan WY","Red Eagle Food Store",-106.938290,44.773660,0,43260,2,
"","Gillette","WY","Gillette WY","Shell Food Mart",-105.503822,44.293180,0,23940,2,
"","Douglas","WY","","Conoco",-105.400665,42.763027,3,,0,
"","Casper","WY","Casper WY","",-106.325150,42.856552,0,16220,1,
"","Rawlins","WY","","",-107.224394,41.776202,3,,0,
"","Wheatland","WY","","I-25 Conoco",-104.968000,42.046600,3,,0,
"","Laramie","WY","Laramie WY","Ramada Inn",-105.593254,41.295177,0,29660,2,
"","Cheyenne","WY","Cheyenne WY","Rodeway Inn",-104.837000,41.166600,0,16940,1,
"","Sutton","WV","","Llyods Shell",-80.658990,38.705235,3,,0,
"","Fairmont","WV","Fairmont WV","",-80.134926,39.474580,3,21900,2,
"","Morgantown","WV","Morgantown WV","",-79.963406,39.655574,0,34060,1,
"","Westover","WV","Morgantown WV","",-79.974280,39.632458,0,34060,1,
"","Weston","WV","","",-80.418616,39.021203,3,,0,
"","Clarksburg","WV","Clarksburg WV","",-80.376420,39.267014,0,17220,2,
"","Clarksburg Bridgeport","WV","Clarksburg WV","Kroger",-80.277770,39.280300,0,17220,2,
"","Parkersburg","WV","Parkersburg-Vienna WV","Marathon Gas",-81.518450,39.227725,0,37620,1,
"","Wheeling","WV","Wheeling WV-OH","",-80.722510,40.067160,3,48540,1,
"","Wheeling","WV","Wheeling WV-OH","",-80.724675,40.070633,3,48540,1,
"","Hinton","WV","","Amtrak Station",-80.888630,37.677070,3,,0,
"","Thurmond","WV","Beckley WV","Amtrak Station",-81.078060,37.956670,0,13220,1,
"","Prince","WV","Beckley WV","Amtrak Station",-81.054220,37.858710,0,13220,1,
"","Beckley","WV","Beckley WV","",-81.180310,37.778954,0,13220,1,
"","Huntington","WV","Huntington-Ashland WV-KY-OH","Greyhound Bus Station",-82.438000,38.421600,0,26580,1,
"","Huntington","WV","Huntington-Ashland WV-KY-OH","Amtrak Station",-82.440840,38.415410,0,26580,1,
"","Harpers Ferry","WV","Washington-Arlington-Alexandria DC-VA-MD-WV","Amtrak Station",-77.733560,39.325040,0,47900,1,
"","Harpers Ferry","WV","Washington-Arlington-Alexandria DC-VA-MD-WV","Amtrak Station",-77.733560,39.325040,0,47900,1,
"","Duffields","WV","Washington-Arlington-Alexandria DC-VA-MD-WV","MARC Station",-77.826810,39.362230,0,47900,1,
"","Martinsburg","WV","Hagerstown-Martinsburg MD-WV","Amtrak/MARC Station",-77.961500,39.458270,0,25180,1,
"","Martinsburg","WV","Hagerstown-Martinsburg MD-WV","Amtrak/MARC Station",-77.961500,39.458270,0,25180,1,
"","Charleston","WV","Charleston WV","Amtrak Station",-81.646720,38.351990,0,16620,1,
"","Charleston","WV","Charleston WV","Greyhound Bus Station",-81.640000,38.356400,0,16620,1,
"","Ripley","WV","","Fratellos Italian Restaurant",-81.696500,38.768600,3,,0,
"","Montgomery","WV","Beckley WV","Amtrak Station",-81.324070,38.180700,0,13220,1,
"","Clendenin","WV","Charleston WV","Park and Ride Exit 19",-81.357584,38.490191,0,16620,1,
"","White Sulphur Springs","WV","","Amtrak Station",-80.305810,37.785420,3,,0,
"","Alderson","WV","","Amtrak Station",-80.644650,37.724240,3,,0,
"","Bluefield","WV","Bluefield WV-VA","",-81.221370,37.261776,0,14140,2,
"","South Beloit","WI","Rockford IL","",-88.988761,42.489934,0,40420,1,
"","Waupaca","WI","","Waupaca Mobil Travel Center",-89.120000,44.356700,3,,0,
"","Fond du Lac","WI","Fond du Lac WI","Mobil Gas Station",-88.450000,43.753100,3,22540,1,
"","Appleton","WI","Appleton WI","Valley Transit Center",-88.406000,44.263300,0,11540,1,
"","Oshkosh","WI","Oshkosh-Neenah WI","Wittman Regional Airport",-88.551000,43.995700,3,36780,1,
"","Oshkosh","WI","Oshkosh-Neenah WI","Gruenhagen Conference Center",-88.549600,44.022200,3,36780,1,
"","Superior","WI","Duluth MN-WI","Yellowjacket Union",-92.087524,46.719310,0,20260,1,
"","Superior","WI","Duluth MN-WI","",-92.076980,46.706112,0,20260,1,
"","Iron River","WI","","",-91.413510,46.564953,3,,0,
"","Brule","WI","Duluth MN-WI","Cenex Gas Station",-91.574600,46.551000,0,20260,1,
"","Ashland","WI","","Jet Travel & Tours",-90.884500,46.590800,3,,0,
"","Stanley","WI","Eau Claire WI","",-90.938000,44.964300,0,20740,1,
"","Menomonie","WI","Menomonie WI","University of Wisconsin - Stout Memorial Student Center",-91.927000,44.873800,3,32860,2,
"","Chippewa Falls","WI","Eau Claire WI","Holiday Station",-91.427000,44.883100,0,20740,1,
"","Eau Claire","WI","Eau Claire WI","McDonalds Restaurant",-91.595000,44.842600,0,20740,1,
"","Eau Claire","WI","Eau Claire WI","Towers Hall",-91.505310,44.796480,0,20740,1,
"","Tomah","WI","","McDonalds",-90.505000,44.018300,3,,0,
"","Tomah","WI","","Amtrak Station",-90.504170,43.985730,3,,0,
"","Sparta","WI","","",-90.818000,43.923400,3,,0,
"","La Crosse","WI","La Crosse-Onalaska WI-MN","Amtrak Station",-91.247600,43.833620,3,29100,1,
"","La Crosse","WI","La Crosse-Onalaska WI-MN","Amtrak Station",-91.247600,43.833620,3,29100,1,
"","La Crosse","WI","La Crosse-Onalaska WI-MN","North of Farwell St by Sanford Hall",-91.229114,43.818384,3,29100,1,
"","La Crosse","WI","La Crosse-Onalaska WI-MN","La Crosse Bus Depot",-91.253000,43.810500,3,29100,1,
"","Hurley","WI","","Citgo Quick Mart",-90.182400,46.449900,3,,0,
"","Wittenberg","WI","Shawano WI","Wittenberg Shell",-89.167000,44.826500,3,43020,2,
"","Wisonsin Rapids","WI","Wisconsin Rapids-Marshfield WI","",-89.857290,44.397255,3,49220,2,
"","Stevens Point","WI","Stevens Point WI","Olympic Family Restaurant",-89.575000,44.532800,3,44620,2,
"","Stevens Point","WI","Stevens Point WI","UW-Stevens Point Health Enhancement Center",-89.570300,44.528800,3,44620,2,
"","Rothschild","WI","Wausau WI","Lamers Bus Lines",-89.635000,44.854800,0,48140,1,
"","Abbotsford","WI","Wausau WI","Super 29 Shell",-90.315000,44.912300,0,48140,1,
"","Wausau","WI","Wausau WI","Wausau Transit Center",-89.625000,44.959300,0,48140,1,
"","Green Bay","WI","Green Bay WI","",-87.932340,44.472420,0,24580,1,
"","Green Bay","WI","Green Bay WI","Green Bay Transit",-88.002000,44.516600,0,24580,1,
"","Northport","WI","","Gills Rock",-87.021660,45.290000,3,,0,
"","Detroit Harbor","WI","","Washington Island",-86.937540,45.339100,3,,0,
"","Manitowoc","WI","Manitowoc WI","Manitowoc Shell",-87.701000,44.077800,3,31820,2,
"","Manitowoc","WI","Manitowoc WI","SS Badger Dock",-87.652030,44.090600,3,31820,2,
"","Peshtigo","WI","Marinette WI-MI","",-87.760560,45.055202,3,31940,2,
"","Peshtigo","WI","Marinette WI-MI","",-87.761000,45.054400,3,31940,2,
"","Oconto","WI","Green Bay WI","",-87.900530,44.892080,0,24580,1,
"","Oconto","WI","Green Bay WI","Shell Gas Station",-87.887000,44.880000,0,24580,1,
"","Marinette","WI","Marinette WI-MI","Marinette Shell/Taco Bell",-87.665000,45.079100,3,31940,2,
"","Wisconsin Dells","WI","Baraboo WI","Travel Mart",-89.798000,43.623000,3,12660,2,
"","Wisconsin Dells","WI","Madison WI","Amtrak Station",-89.775080,43.624790,0,31540,1,
"","Westfield","WI","","Westfield Mobil",-89.485700,43.889900,3,,0,
"","Waupun","WI","Beaver Dam WI","",-88.732587,43.632872,3,13180,2,
"","Waupun","WI","Fond du Lac WI","End of Trail Candy Shop",-88.718000,43.633400,3,22540,1,
"","Columbus","WI","Madison WI","Columbus Amtrak",-89.012700,43.340600,0,31540,1,
"","Columbus","WI","Madison WI","Amtrak Station",-89.012480,43.340670,0,31540,1,
"","Beaver Dam","WI","Beaver Dam WI","Crossroads Shell",-88.817700,43.455900,3,13180,2,
"","Baraboo","WI","Baraboo WI","M & G Travel Mart Shell",-89.768700,43.475700,3,12660,2,
"","Portage","WI","Madison WI","Portage Amtrak",-89.466600,43.546900,0,31540,1,
"","Portage","WI","Madison WI","Amtrak Station",-89.469140,43.546610,0,31540,1,
"","Platteville","WI","Platteville WI","Markee Pioneer Student Center",-90.493100,42.733800,3,38420,2,
"","Platteville","WI","Platteville WI","Ashleys Market/Convenience Store",-90.437100,42.732000,3,38420,2,
"","Madison","WI","Madison WI","",-89.428970,43.077263,0,31540,1,
"","Madison","WI","Madison WI","Dutch Mill Park & Ride",-89.305000,43.047500,0,31540,1,
"","Madison","WI","Madison WI","",-89.399000,43.073400,0,31540,1,
"","Madison","WI","Madison WI","",-89.385280,43.075720,0,31540,1,
"","Madison","WI","Madison WI","",-89.372980,43.077090,0,31540,1,
"","Madison","WI","Madison WI","",-89.381730,43.072550,0,31540,1,
"","Madison","WI","Madison WI","",-89.394290,43.067370,0,31540,1,
"","Madison","WI","Madison WI","",-89.387920,43.073690,0,31540,1,
"","Madison","WI","Madison WI","",-89.392580,43.075310,0,31540,1,
"","Madison","WI","Madison WI","",-89.404190,43.057130,0,31540,1,
"","Madison","WI","Madison WI","",-89.406260,43.073560,0,31540,1,
"","Madison","WI","Madison WI","",-89.407720,43.072040,0,31540,1,
"","Madison","WI","Madison WI","",-89.373890,43.047240,0,31540,1,
"","Madison","WI","Madison WI","",-89.364560,43.083360,0,31540,1,
"","Madison","WI","Madison WI","",-89.414030,43.067540,0,31540,1,
"","Madison","WI","Madison WI","",-89.335930,43.091990,0,31540,1,
"","Madison","WI","Madison WI","",-89.430130,43.077320,0,31540,1,
"","Madison","WI","Madison WI","",-89.420160,43.076670,0,31540,1,
"","Madison","WI","Madison WI","",-89.383630,43.077320,0,31540,1,
"","Madison","WI","Madison WI","",-89.366120,43.092260,0,31540,1,
"","Madison","WI","Madison WI","",-89.388880,43.065090,0,31540,1,
"","Madison","WI","Madison WI","",-89.401270,43.069620,0,31540,1,
"","Madison","WI","Madison WI","",-89.397270,43.072980,0,31540,1,
"","Madison","WI","Madison WI","",-89.428760,43.057120,0,31540,1,
"","Madison","WI","Madison WI","",-89.417610,43.064790,0,31540,1,
"","Madison","WI","Madison WI","",-89.400670,43.077020,0,31540,1,
"","Madison","WI","Madison WI","",-89.387570,43.078620,0,31540,1,
"","Madison","WI","Madison WI","",-89.397000,43.075760,0,31540,1,
"","Madison","WI","Madison WI","",-89.375520,43.075540,0,31540,1,
"","Madison","WI","Madison WI","",-89.452620,43.074320,0,31540,1,
"","Madison","WI","Madison WI","",-89.396560,43.074670,0,31540,1,
"","Madison","WI","Madison WI","",-89.351380,43.092450,0,31540,1,
"","Madison","WI","Madison WI","",-89.381050,43.072930,0,31540,1,
"","Madison","WI","Madison WI","",-89.383840,43.080430,0,31540,1,
"","Madison","WI","Madison WI","",-89.375460,43.086340,0,31540,1,
"","Madison","WI","Madison WI","",-89.468970,43.076800,0,31540,1,
"","Shorewood Hills","WI","Madison WI","",-89.450870,43.078040,0,31540,1,
"","Shorewood Hills","WI","Madison WI","",-89.433960,43.075890,0,31540,1,
"","Madison","WI","Madison WI","University Station Clinic",-89.438510,43.076380,0,31540,1,
"","Madison","WI","Madison WI","Madison College Truax Campus",-89.330690,43.121280,0,31540,1,
"","Madison","WI","Madison WI","",-89.397500,43.073227,0,31540,1,
"","Madison","WI","Madison WI","flag stop",-89.364456,43.088573,0,31540,1,
"","Madison","WI","Madison WI","The Edgewater",-89.389350,43.079150,0,31540,1,
"","Verona","WI","Madison WI","Chinmi Cenex",-89.539100,42.989100,0,31540,1,
"","Mt Horeb","WI","Madison WI","Premier Co-op",-89.748200,43.006600,0,31540,1,
"","Janesville","WI","Janesville-Beloit WI","",-88.988000,42.719900,3,27500,1,
"","Dodgeville","WI","Madison WI","Dodgeville Citgo",-90.131400,42.964000,0,31540,1,
"","Racine","WI","Racine WI","",-87.812836,42.694120,3,39540,1,
"","Milwaukee","WI","Milwaukee-Waukesha-West Allis WI","",-87.932960,43.038930,0,33340,1,
"","Milwaukee","WI","Milwaukee-Waukesha-West Allis WI","Public Museum",-87.921330,43.040720,0,33340,1,
"","Milwaukee","WI","Milwaukee-Waukesha-West Allis WI","Marquette University Student Union",-87.932110,43.040150,0,33340,1,
"","Milwaukee","WI","Milwaukee-Waukesha-West Allis WI","Central Library",-87.921930,43.038650,0,33340,1,
"","Milwaukee","WI","Milwaukee-Waukesha-West Allis WI","General Mitchell International Airport",-87.924480,42.941750,1,33340,1,
"","Milwaukee","WI","Milwaukee-Waukesha-West Allis WI","6th/Reservoir",-87.918740,43.054780,0,33340,1,
"","Milwaukee","WI","Milwaukee-Waukesha-West Allis WI","MLK/Brown",-87.914480,43.056580,0,33340,1,
"","Milwaukee","WI","Milwaukee-Waukesha-West Allis WI","Riverview",-87.895460,43.060330,0,33340,1,
"","Milwaukee","WI","Milwaukee-Waukesha-West Allis WI","Humboldt/Commerce",-87.897870,43.058390,0,33340,1,
"","Milwaukee","WI","Milwaukee-Waukesha-West Allis WI","Hillside Terrace",-87.918820,43.051120,0,33340,1,
"","Milwaukee","WI","Milwaukee-Waukesha-West Allis WI","Lakefront Brewery",-87.905040,43.055360,0,33340,1,
"","Milwaukee","WI","Milwaukee-Waukesha-West Allis WI","University of Wisconsin Milwaukee Union",-87.881664,43.074581,0,33340,1,
"","Milwaukee","WI","Milwaukee-Waukesha-West Allis WI","Downer/Park Place",-87.877740,43.067270,0,33340,1,
"","Milwaukee","WI","Milwaukee-Waukesha-West Allis WI","Prospect/North",-87.883680,43.060290,0,33340,1,
"","Milwaukee","WI","Milwaukee-Waukesha-West Allis WI","Golda Meir Library",-87.880770,43.077360,0,33340,1,
"","Milwaukee","WI","Milwaukee-Waukesha-West Allis WI","Sandburg Hall",-87.882620,43.078530,0,33340,1,
"","Milwaukee","WI","Milwaukee-Waukesha-West Allis WI","North/Cambridge",-87.892170,43.060250,0,33340,1,
"","Milwaukee","WI","Milwaukee-Waukesha-West Allis WI","UWM Student Union",-87.882810,43.074890,0,33340,1,
"","Milwaukee","WI","Milwaukee-Waukesha-West Allis WI","",-87.977486,43.066837,0,33340,1,
"","Milwaukee","WI","Milwaukee-Waukesha-West Allis WI","Zillman Park",-87.905400,43.004750,0,33340,1,
"","Milwaukee","WI","Milwaukee-Waukesha-West Allis WI","Mitchell Field International Airport",-87.903000,42.947400,1,33340,1,
"","Milwaukee","WI","Milwaukee-Waukesha-West Allis WI","Lake Express Terminal",-87.885730,43.003790,0,33340,1,
"","Milwaukee","WI","Milwaukee-Waukesha-West Allis WI","Cesar Chavez Drive",-87.932780,43.020230,0,33340,1,
"","Milwaukee","WI","Milwaukee-Waukesha-West Allis WI","S. 2nd/Virginia",-87.912680,43.026280,0,33340,1,
"","Milwaukee","WI","Milwaukee-Waukesha-West Allis WI","6th/Virginia",-87.918040,43.026470,0,33340,1,
"","Milwaukee","WI","Milwaukee-Waukesha-West Allis WI","S. 2nd/Freshwater",-87.912820,43.029480,0,33340,1,
"","Milwaukee","WI","Milwaukee-Waukesha-West Allis WI","S. 2nd/Washington",-87.912540,43.020020,0,33340,1,
"","Milwaukee","WI","Milwaukee-Waukesha-West Allis WI","Intermodal Station",-87.917500,43.034620,0,33340,1,
"","Milwaukee","WI","Milwaukee-Waukesha-West Allis WI","Wisconsin Center",-87.916150,43.039130,0,33340,1,
"","Milwaukee","WI","Milwaukee-Waukesha-West Allis WI","Greyhound Bus Station/Amtrak",-87.917000,43.034500,0,33340,1,
"","Milwaukee","WI","Milwaukee-Waukesha-West Allis WI","Milwaukee Intermodal Terminal",-87.916480,43.034020,0,33340,1,
"","Milwaukee","WI","Milwaukee-Waukesha-West Allis WI","",-87.905290,43.039040,0,33340,1,
"","Milwaukee","WI","Milwaukee-Waukesha-West Allis WI","Water/Pleasant",-87.906160,43.051260,0,33340,1,
"","Milwaukee","WI","Milwaukee-Waukesha-West Allis WI","Brady/Prospect",-87.891000,43.052460,0,33340,1,
"","Milwaukee","WI","Milwaukee-Waukesha-West Allis WI","Kenilworth Square",-87.885320,43.058620,0,33340,1,
"","Milwaukee","WI","Milwaukee-Waukesha-West Allis WI","MIAD",-87.908170,43.031480,0,33340,1,
"","Milwaukee","WI","Milwaukee-Waukesha-West Allis WI","Ogden/Marshall",-87.900860,43.048200,0,33340,1,
"","Milwaukee","WI","Milwaukee-Waukesha-West Allis WI","Ogden/Jackson",-87.904970,43.048240,0,33340,1,
"","Milwaukee","WI","Milwaukee-Waukesha-West Allis WI","Jefferson/Menomonee",-87.904260,43.031320,0,33340,1,
"","Milwaukee","WI","Milwaukee-Waukesha-West Allis WI","Broadway/Knapp",-87.908720,43.046570,0,33340,1,
"","Milwaukee","WI","Milwaukee-Waukesha-West Allis WI","Brady/Humboldt",-87.897660,43.053040,0,33340,1,
"","Milwaukee","WI","Milwaukee-Waukesha-West Allis WI","411 East Wisconsin",-87.905340,43.038720,0,33340,1,
"","Milwaukee","WI","Milwaukee-Waukesha-West Allis WI","Water/Wisconsin",-87.909340,43.038580,0,33340,1,
"","Milwaukee","WI","Milwaukee-Waukesha-West Allis WI","US Bank Center",-87.902720,43.038860,0,33340,1,
"","Milwaukee","WI","Milwaukee-Waukesha-West Allis WI","Public Market",-87.907390,43.035190,0,33340,1,
"","Milwaukee","WI","Milwaukee-Waukesha-West Allis WI","Schlitz Park",-87.911940,43.049230,0,33340,1,
"","Milwaukee","WI","Milwaukee-Waukesha-West Allis WI","Red Arrow Park",-87.909960,43.042490,0,33340,1,
"","Milwaukee","WI","Milwaukee-Waukesha-West Allis WI","Discovery World",-87.896670,43.036900,0,33340,1,
"","Whitewater","WI","Watertown-Fort Atkinson WI","UW Whitewater - Esker Dining Hall",-88.740800,42.843300,3,48020,2,
"","Whitewater","WI","Whitewater-Elkhorn WI","UW Whitewater - Drumlin Dining Hall",-88.746600,42.840800,3,48580,2,
"","Sturtevant","WI","Racine WI","Amtrak Station",-87.905160,42.699680,3,39540,1,
"","Kenosha","WI","Chicago-Naperville-Elgin IL-IN-WI","2nd Ave",-87.814000,42.585500,0,16980,1,
"","Kenosha","WI","Chicago-Naperville-Elgin IL-IN-WI","3rd Ave",-87.815200,42.585400,0,16980,1,
"","Kenosha","WI","Chicago-Naperville-Elgin IL-IN-WI","4th Ave",-87.816400,42.585200,0,16980,1,
"","Kenosha","WI","Chicago-Naperville-Elgin IL-IN-WI","8th Ave",-87.821400,42.586700,0,16980,1,
"","Kenosha","WI","Chicago-Naperville-Elgin IL-IN-WI","5th Ave",-87.817600,42.585100,0,16980,1,
"","Kenosha","WI","Chicago-Naperville-Elgin IL-IN-WI","6th Ave",-87.818500,42.587000,0,16980,1,
"","Kenosha","WI","Chicago-Naperville-Elgin IL-IN-WI","6th Ave",-87.818800,42.584900,0,16980,1,
"","Kenosha","WI","Chicago-Naperville-Elgin IL-IN-WI","5th Ave",-87.817800,42.587100,0,16980,1,
"","Kenosha","WI","Chicago-Naperville-Elgin IL-IN-WI","7th Ave",-87.820100,42.584800,0,16980,1,
"","Kenosha","WI","Chicago-Naperville-Elgin IL-IN-WI","4th Ave",-87.816600,42.587300,0,16980,1,
"","Kenosha","WI","Chicago-Naperville-Elgin IL-IN-WI","Sheridan Rd/8th Ave",-87.821200,42.584700,0,16980,1,
"","Kenosha","WI","Chicago-Naperville-Elgin IL-IN-WI","3rd Ave",-87.815400,42.518400,0,16980,1,
"","Kenosha","WI","Chicago-Naperville-Elgin IL-IN-WI","10th Ave",-87.823600,42.584300,0,16980,1,
"","Kenosha","WI","Chicago-Naperville-Elgin IL-IN-WI","11th Ave",-87.824700,42.584500,0,16980,1,
"","Kenosha","WI","Chicago-Naperville-Elgin IL-IN-WI","2nd Ave",-87.813900,42.587600,0,16980,1,
"","Kenosha","WI","Chicago-Naperville-Elgin IL-IN-WI","11th Ave",-87.825000,42.585900,0,16980,1,
"","Kenosha","WI","Chicago-Naperville-Elgin IL-IN-WI","Public Museum",-87.812700,42.585700,0,16980,1,
"","Kenosha","WI","Chicago-Naperville-Elgin IL-IN-WI","Kenosha Metra Station",-87.825830,42.585830,0,16980,1,
"","Sheboygan","WI","Sheboygan WI","Sheboygan Transit Center",-87.713000,43.749800,3,43100,1,
"","Goerkes Corners","WI","Milwaukee-Waukesha-West Allis WI","",-88.168000,43.034600,0,33340,1,
"","Johnson Creek","WI","Watertown-Fort Atkinson WI","near Arby's at Johnson Creek Premium Outlets",-88.763181,43.090022,3,48020,2,
"","Shawano","WI","Shawano WI","22 Shell",-88.615000,44.753000,3,43020,2,
"","Wallula","WA","Walla Walla WA","",-118.907800,46.082400,0,47460,1,
"","Walla Walla","WA","Walla Walla WA","",-118.328070,46.061960,0,47460,1,
"","Walla Walla","WA","Walla Walla WA","",-118.342100,46.066200,0,47460,1,
"","Walla Walla","WA","Walla Walla WA","",-118.284500,46.087200,0,47460,1,
"","Touchet","WA","Walla Walla WA","",-118.744461,46.064386,0,47460,1,
"","Touchet","WA","Walla Walla WA","",-118.668700,46.040400,0,47460,1,
"","Burbank","WA","Walla Walla WA","",-118.997100,46.196800,0,47460,1,
"","Pasco","WA","Kennewick-Richland WA","",-119.097330,46.235706,0,28420,1,
"","Pasco","WA","Kennewick-Richland WA","Intermountain Transp Inc",-119.089000,46.236200,0,28420,1,
"","Pasco","WA","Kennewick-Richland WA","Pasco Airport",-119.115100,46.259300,1,28420,1,
"","Pasco","WA","Kennewick-Richland WA","Pasco Intermodal Station",-119.084240,46.233600,0,28420,1,
"","Spokane","WA","Spokane-Spokane Valley WA","Spokane Airport",-117.537800,47.625100,1,44060,1,
"","Spokane","WA","Spokane-Spokane Valley WA","Hastings Rd Park & Ride",-117.406600,47.768800,0,44060,1,
"","Spokane","WA","Spokane-Spokane Valley WA","Spokane STA Plaza",-117.422600,47.657600,0,44060,1,
"","Spokane","WA","Spokane-Spokane Valley WA","Spokane Travel Service",-117.415000,47.656700,0,44060,1,
"","Spokane","WA","Spokane-Spokane Valley WA","Spokane Intermodal Center",-117.413060,47.656990,0,44060,1,
"","Ritzville","WA","Othello WA","",-118.376090,47.126427,3,36830,2,
"","Ritzville","WA","Othello WA","Zips Drive Inn",-118.365000,47.118600,3,36830,2,
"","Pullman","WA","Pullman WA","Dissmores Iga",-117.173060,46.739395,0,39420,2,
"","Loon Lake","WA","Spokane-Spokane Valley WA","Lakeside Motel",-117.622700,48.061200,0,44060,1,
"","Kettle Falls","WA","Spokane-Spokane Valley WA","Chamber of Commerce",-118.062200,48.610500,0,44060,1,
"","Colville","WA","Spokane-Spokane Valley WA","",-117.901500,48.546127,0,44060,1,
"","Arden","WA","Spokane-Spokane Valley WA","Conoco Station",-117.888200,48.468700,0,44060,1,
"","Colville","WA","Spokane-Spokane Valley WA","Rural Resources",-117.905700,48.535900,0,44060,1,
"","Colfax","WA","Pullman WA","Ace Hardware",-117.365000,46.875500,0,39420,2,
"","Chewelah","WA","Spokane-Spokane Valley WA","",-117.716104,48.279722,0,44060,1,
"","Chewelah","WA","Spokane-Spokane Valley WA","Chewelah Casino",-117.710600,48.237700,0,44060,1,
"","Addy","WA","Spokane-Spokane Valley WA","Old School House/Conoco",-117.835400,48.359500,0,44060,1,
"","Deer Park","WA","Spokane-Spokane Valley WA","",-117.458810,47.953934,0,44060,1,
"","Deer Park","WA","Spokane-Spokane Valley WA","Yokes",-117.478200,47.946200,0,44060,1,
"","Sunnyside","WA","Yakima WA","",-119.978000,46.295200,0,49420,1,
"","Ellensburg","WA","Ellensburg WA","",-120.592000,47.017700,3,21260,2,
"","Yakima","WA","Yakima WA","",-120.472450,46.569912,0,49420,1,
"","George","WA","Moses Lake WA","",-119.852196,47.079178,3,34180,2,
"","Quincy","WA","Moses Lake WA","",-119.853390,47.244576,3,34180,2,
"","Pateros","WA","","Super Stop",-119.899000,48.053100,3,,0,
"","Orondo","WA","Wenatchee WA","",-120.094000,47.761800,0,48300,1,
"","Omak","WA","","Havillah Rd Printing",-119.528500,48.408417,3,,0,
"","Omak","WA","","",-119.520615,48.416893,3,,0,
"","Omak","WA","","Shell Food Mart",-119.516000,48.416600,3,,0,
"","Okanogan","WA","","Food Depot",-119.579000,48.365100,3,,0,
"","Moses Lake","WA","Moses Lake WA","Ernies Truck Stop",-119.258000,47.101800,3,34180,2,
"","Malott","WA","","",-119.706000,48.282900,3,,0,
"","Leavenworth","WA","Wenatchee WA","Icicle Kwik Stop",-120.665000,47.594400,0,48300,1,
"","Stevens Pass","WA","Wenatchee WA","Parking Lot At Summit South Or North",-121.089000,47.746200,0,48300,1,
"","Leavenworth","WA","Wenatchee WA","Amtrak Stop",-120.644400,47.606570,0,48300,1,
"","Ephrata","WA","Moses Lake WA","Chukar Hill Shell",-119.562140,47.306118,3,34180,2,
"","Ephrata","WA","Moses Lake WA","Grant Transit Authority at Intermodal Station",-119.549000,47.321100,3,34180,2,
"","Chelan Falls","WA","Wenatchee WA","Kellys Iron Works",-119.976600,47.817300,0,48300,1,
"","Brewster","WA","","Triange Shell",-119.782000,48.103700,3,,0,
"","Wenatchee","WA","Wenatchee WA","Columbia Station",-120.308000,47.421200,0,48300,1,
"","Wenatchee","WA","Wenatchee WA","Columbia Station",-120.305840,47.421620,0,48300,1,
"","Wishram","WA","","Amtrak Station",-120.966320,45.657310,3,,0,
"","Vancouver","WA","Portland-Vancouver-Hillsboro OR-WA","Amtrak Station",-122.684720,45.629800,0,38900,1,
"","Kelso","WA","Longview WA","",-122.913256,46.142195,3,31020,1,
"","Kelso","WA","Longview WA","Kelso Multimodal Transportation Center",-122.911770,46.142620,3,31020,1,
"","Bingen-White Salmon","WA","","Amtrak Station",-121.469090,45.715380,3,,0,
"","Centralia","WA","Centralia WA","S & G SINGH INC",-122.973000,46.711300,3,16500,2,
"","Centralia","WA","Centralia WA","Amtrak Station",-122.951880,46.717420,3,16500,2,
"","Olympia","WA","Olympia-Tumwater WA","Centennial Station",-122.795810,46.990660,3,36500,1,
"","Olympia","WA","Olympia-Tumwater WA","",-122.901000,47.042100,3,36500,1,
"","Tacoma","WA","Seattle-Tacoma-Bellevue WA","Tacoma Dome Station",-122.428800,47.239700,0,42660,1,
"","Tacoma","WA","Seattle-Tacoma-Bellevue WA","Greyhound Bus Station",-122.427000,47.240500,0,42660,1,
"","Tacoma","WA","Seattle-Tacoma-Bellevue WA","Amtrak station",-122.418000,47.241700,0,42660,1,
"","Tacoma","WA","Seattle-Tacoma-Bellevue WA","Tacoma Dome Transit Center",-122.427350,47.239880,0,42660,1,
"","Tacoma","WA","Seattle-Tacoma-Bellevue WA","Amtrak Station",-122.418470,47.241830,0,42660,1,
"","Ruston","WA","Seattle-Tacoma-Bellevue WA","Point Defiance Ferry Terminal",-122.512910,47.305710,0,42660,1,
"","Tacoma","WA","Seattle-Tacoma-Bellevue WA","Convention Center Station",-122.438500,47.249200,0,42660,1,
"","Tacoma","WA","Seattle-Tacoma-Bellevue WA","Union Station",-122.436800,47.245200,0,42660,1,
"","Tacoma","WA","Seattle-Tacoma-Bellevue WA","Theater District Station",-122.440000,47.256300,0,42660,1,
"","Tacoma","WA","Seattle-Tacoma-Bellevue WA","South 25th Station",-122.433900,47.239200,0,42660,1,
"","Steilacoom","WA","Seattle-Tacoma-Bellevue WA","Steilacoom Landing Facility",-122.601510,47.172680,0,42660,1,
"","Steilacoom","WA","Seattle-Tacoma-Bellevue WA","Ketron Island",-122.629420,47.159180,0,42660,1,
"","Sequim","WA","Port Angeles WA","",-123.106895,48.079660,0,38820,2,
"","Sequim","WA","Port Angeles WA","Tarcissios Italian Restaurant",-123.117200,48.079700,0,38820,2,
"","Puyallup","WA","Seattle-Tacoma-Bellevue WA","Puyallup Station",-122.295500,47.192700,0,42660,1,
"","Discovery Bay","WA","","Fat Smittys Restaurant",-122.886800,47.987800,3,,0,
"","Port Townsend","WA","","",-122.788500,48.118990,3,,0,
"","Port Townsend","WA","","Haines St park and ride",-122.781381,48.108792,3,,0,
"","Port Townsend","WA","","Port Townsend Ferry Terminal",-122.752750,48.115080,3,,0,
"","Southworth","WA","Bremerton-Silverdale WA","Southworth Terminal",-122.500560,47.512220,3,14740,1,
"","Port Orchard","WA","Bremerton-Silverdale WA","Port Orchard Ferry Terminal",-122.634550,47.542510,3,14740,1,
"","Annapolis","WA","Bremerton-Silverdale WA","Annapolis Ferry Dock",-122.619440,47.547780,3,14740,1,
"","Port Angeles","WA","Port Angeles WA","Olympic Bus Line",-123.433000,48.119900,0,38820,2,
"","Port Angeles","WA","Port Angeles WA","Port Angeles Ferry Terminal",-123.429180,48.121190,0,38820,2,
"","Sumner","WA","Seattle-Tacoma-Bellevue WA","Sumner Station",-122.244650,47.201200,0,42660,1,
"","Kingston","WA","Bremerton-Silverdale WA","",-122.522120,47.853590,3,14740,1,
"","Kingston","WA","Bremerton-Silverdale WA","Kingston Ferry Terminal",-122.497600,47.797900,3,14740,1,
"","Kingston","WA","Bremerton-Silverdale WA","Kingston Ferry Terminal",-122.496940,47.798890,3,14740,1,
"","Bremerton","WA","Bremerton-Silverdale WA","Bremerton Transportation Center",-122.625310,47.564250,3,14740,1,
"","Anderson Island","WA","Seattle-Tacoma-Bellevue WA","Anderson Island",-122.676780,47.178260,0,42660,1,
"","Stanwood","WA","Seattle-Tacoma-Bellevue WA","Amtrak Station",-122.348820,48.241500,0,42660,1,
"","Skykomish","WA","Seattle-Tacoma-Bellevue WA","",-121.306230,47.704180,0,42660,1,
"","Skykomish","WA","Seattle-Tacoma-Bellevue WA","Chevron - Eastbound",-121.361000,47.711500,0,42660,1,
"","Skykomish","WA","","Sky Chalet - Westbound",-94.780000,47.395700,3,,0,
"","Shaw","WA","","Shaw Island Terminal",-122.928230,48.584660,3,,0,
"","Mukilteo","WA","Seattle-Tacoma-Bellevue WA","Mukilteo Station",-122.302100,47.948210,0,42660,1,
"","Mukilteo","WA","Seattle-Tacoma-Bellevue WA","Mukilteo Terminal",-122.304440,47.949040,0,42660,1,
"","Mount Vernon","WA","Mount Vernon-Anacortes WA","Bay Bus Ticketing Inc",-122.335000,48.417800,0,34580,1,
"","Mount Vernon","WA","Mount Vernon-Anacortes WA","Skagit Station",-122.329190,48.436850,0,34580,1,
"","Monroe","WA","Seattle-Tacoma-Bellevue WA","Westbound in front of Red Barn; Eastbound in back of Grocery",-121.964000,47.858000,0,42660,1,
"","Lopez Island","WA","","Lopez Island Ferry Terminal",-122.882110,48.570940,0,,0,
"","Hat Island","WA","Seattle-Tacoma-Bellevue WA","Hat Island Marina",-122.322490,48.020150,0,42660,1,
"","Friday Harbor","WA","","Friday Harbor Terminal",-123.015830,48.534440,0,,0,
"","Friday Harbor","WA","","Friday Harbor Terminal",-123.014500,48.535179,0,,0,
"","Friday Harbor","WA","","Friday Harbor Terminal",-123.015830,48.534440,0,,0,
"","Eastsound","WA","","Orcas Island Ferry Terminal",-122.943340,48.598060,0,,0,
"","Coupeville","WA","Oak Harbor WA","Keystone Ferry Terminal",-122.671180,48.159680,0,36020,2,
"","Clinton","WA","Oak Harbor WA","Clinton Ferry Terminal",-122.354450,47.978610,0,36020,2,
"","Bellingham","WA","Bellingham WA","",-122.491670,48.794950,0,13380,1,
"","Bellingham","WA","Bellingham WA","Greyhound Bus Station",-122.511000,48.720100,0,13380,1,
"","Bellingham","WA","Bellingham WA","Alaska Ferry Terminal",-122.511480,48.720750,0,13380,1,
"","Bellingham","WA","Bellingham WA","Fairhaven Transportation Center",-122.509890,48.720490,0,13380,1,
"","Anacortes","WA","Mount Vernon-Anacortes WA","Washington State Ferries Terminal",-122.676810,48.506740,0,34580,1,
"","Anacortes","WA","Mount Vernon-Anacortes WA","Guemes Island Ferry Landing",-122.622180,48.518160,0,34580,1,
"","Guemes","WA","Mount Vernon-Anacortes WA","Ferry Dock",-122.623610,48.530280,0,34580,1,
"","Everett","WA","Seattle-Tacoma-Bellevue WA","Everett Station",-122.215620,47.979280,0,42660,1,
"","Everett","WA","Seattle-Tacoma-Bellevue WA","Amtrak/Greyhound",-122.199000,47.976000,0,42660,1,
"","Everett","WA","Seattle-Tacoma-Bellevue WA","Everett Public Boat Launch",-122.223100,48.004280,0,42660,1,
"","Everett","WA","Seattle-Tacoma-Bellevue WA","Everett Station",-122.215620,47.979280,0,42660,1,
"","Seattle","WA","Seattle-Tacoma-Bellevue WA","",-122.306263,47.649951,0,42660,1,
"","Tukwila","WA","Seattle-Tacoma-Bellevue WA","Sounder/Amtrak Station",-122.240060,47.461150,0,42660,1,
"","Seattle","WA","Seattle-Tacoma-Bellevue WA","SeaTac/Airport",-122.296400,47.445200,1,42660,1,
"","Tukwila","WA","Seattle-Tacoma-Bellevue WA","Tukwila International Blvd",-122.287100,47.465000,0,42660,1,
"","Tukwila","WA","Seattle-Tacoma-Bellevue WA","Sounder/Amtrak Station",-122.240060,47.461150,0,42660,1,
"","Seattle","WA","Seattle-Tacoma-Bellevue WA","Seattle-Tacoma Intl",-122.309310,47.448980,1,42660,1,
"","Seattle","WA","Seattle-Tacoma-Bellevue WA","Beacon Hill",-122.311600,47.578600,0,42660,1,
"","Seattle","WA","Seattle-Tacoma-Bellevue WA","Mount Baker",-122.297800,47.576800,0,42660,1,
"","Fauntleroy","WA","Seattle-Tacoma-Bellevue WA","Fauntleroy Ferry Terminal",-122.391660,47.523330,0,42660,1,
"","Seattle","WA","Seattle-Tacoma-Bellevue WA","",-122.326594,47.591549,0,42660,1,
"","Seattle","WA","Seattle-Tacoma-Bellevue WA","Stadium",-122.327400,47.592400,0,42660,1,
"","Seattle","WA","Seattle-Tacoma-Bellevue WA","SODO",-122.327500,47.579800,0,42660,1,
"","Seattle","WA","Seattle-Tacoma-Bellevue WA","",-122.320776,47.618639,0,42660,1,
"","Seattle","WA","Seattle-Tacoma-Bellevue WA","Westlake (Southbound) & 7th",-122.337800,47.615200,0,42660,1,
"","Seattle","WA","Seattle-Tacoma-Bellevue WA","Westlake & 9th",-122.338400,47.618000,0,42660,1,
"","Seattle","WA","Seattle-Tacoma-Bellevue WA","Westlake (Northbound) & 7th",-122.337800,47.615200,0,42660,1,
"","Seattle","WA","Seattle-Tacoma-Bellevue WA","Westlake & Denny",-122.338500,47.618500,0,42660,1,
"","Seattle","WA","Seattle-Tacoma-Bellevue WA","Victoria Clipper Terminal (Pier 69)",-122.341280,47.605670,0,42660,1,
"","Seattle","WA","Seattle-Tacoma-Bellevue WA","Othello",-122.281500,47.538300,0,42660,1,
"","Seattle","WA","Seattle-Tacoma-Bellevue WA","Rainier Beach",-122.279400,47.521600,0,42660,1,
"","Bainbridge Island","WA","Bremerton-Silverdale WA","Bainbridge Island Ferry Terminal",-122.508580,47.622700,3,14740,1,
"","Seattle","WA","Seattle-Tacoma-Bellevue WA","",-122.347376,47.620878,0,42660,1,
"","Seattle","WA","Seattle-Tacoma-Bellevue WA","",-122.339408,47.624769,0,42660,1,
"","Seattle","WA","Seattle-Tacoma-Bellevue WA","Terry & Thomas",-122.337200,47.620800,0,42660,1,
"","Seattle","WA","Seattle-Tacoma-Bellevue WA","Lake Union Park",-122.337200,47.625800,0,42660,1,
"","Seattle","WA","Seattle-Tacoma-Bellevue WA","Terry & Mercer",-122.337200,47.624500,0,42660,1,
"","Seattle","WA","Seattle-Tacoma-Bellevue WA","Westlake & Mercer",-122.338400,47.624500,0,42660,1,
"","Seattle","WA","Seattle-Tacoma-Bellevue WA","Westlake & Thomas",-122.338500,47.620900,0,42660,1,
"","Seattle","WA","Seattle-Tacoma-Bellevue WA","Fairview & Campus Drive (Hutchinson Cancer Research Center s",-122.332300,47.627700,0,42660,1,
"","Seattle","WA","Seattle-Tacoma-Bellevue WA","Columbia City",-122.292000,47.559100,0,42660,1,
"","Seattle","WA","Seattle-Tacoma-Bellevue WA","",-122.313333,47.658287,0,42660,1,
"","Seattle","WA","Seattle-Tacoma-Bellevue WA","",-122.327670,47.598354,0,42660,1,
"","Seattle","WA","Seattle-Tacoma-Bellevue WA","12th Ave & E Yesler Way",-122.316923,47.602103,0,42660,1,
"","Seattle","WA","Seattle-Tacoma-Bellevue WA","1st Ave & Marion St",-122.335800,47.604058,0,42660,1,
"","Seattle","WA","Seattle-Tacoma-Bellevue WA","Seattle Aquarium / Alaskan Way S & Elliott Bay Trail",-122.341808,47.607660,0,42660,1,
"","Seattle","WA","Seattle-Tacoma-Bellevue WA","Pier 69 / Alaskan Way & Clay St",-122.354187,47.614376,0,42660,1,
"","Seattle","WA","Seattle-Tacoma-Bellevue WA","UW Magnuson Health Sciences Center Rotunda / Columbia Rd & S",-122.311188,47.650725,0,42660,1,
"","Seattle","WA","Seattle-Tacoma-Bellevue WA","UW Intramural Activities Building",-122.302162,47.653713,0,42660,1,
"","Seattle","WA","Seattle-Tacoma-Bellevue WA","UW Engineering Library / E Stevens Way NE & Jefferson Rd",-122.304863,47.654613,0,42660,1,
"","Seattle","WA","Seattle-Tacoma-Bellevue WA","15th Ave NE & NE 40th St",-122.311890,47.655590,0,42660,1,
"","Seattle","WA","Seattle-Tacoma-Bellevue WA","Burke Museum / E Stevens Way NE & Memorial Way NE",-122.310402,47.659756,0,42660,1,
"","Seattle","WA","Seattle-Tacoma-Bellevue WA","NE 47th St & 12th Ave NE",-122.315086,47.663143,0,42660,1,
"","Seattle","WA","Seattle-Tacoma-Bellevue WA","12th Ave & NE Campus Pkwy",-122.315620,47.656395,0,42660,1,
"","Seattle","WA","Seattle-Tacoma-Bellevue WA","Burke-Gilman Trail / NE Blakeley St & 24th Ave NE",-122.301491,47.666145,0,42660,1,
"","Seattle","WA","Seattle-Tacoma-Bellevue WA","Key Arena / 1st Ave N & Harrison St",-122.355230,47.622277,0,42660,1,
"","Seattle","WA","Seattle-Tacoma-Bellevue WA","Lake Union Park / Valley St & Boren Ave N",-122.335831,47.626041,0,42660,1,
"","Seattle","WA","Seattle-Tacoma-Bellevue WA","Westlake Ave & 6th Ave",-122.337341,47.613628,0,42660,1,
"","Seattle","WA","Seattle-Tacoma-Bellevue WA","PATH / 9th Ave & Westlake Ave",-122.338913,47.618320,0,42660,1,
"","Seattle","WA","Seattle-Tacoma-Bellevue WA","Republican St & Westlake Ave N",-122.338203,47.623165,0,42660,1,
"","Seattle","WA","Seattle-Tacoma-Bellevue WA","Dexter Ave N & Aloha St",-122.342232,47.627735,0,42660,1,
"","Seattle","WA","Seattle-Tacoma-Bellevue WA","REI / Yale Ave N & John St",-122.330304,47.619859,0,42660,1,
"","Seattle","WA","Seattle-Tacoma-Bellevue WA","Occidental Park / Occidental Ave S & S Washington St",-122.332946,47.600757,0,42660,1,
"","Seattle","WA","Seattle-Tacoma-Bellevue WA","King Street Station Plaza / 2nd Ave Extension S & S Jackson",-122.329684,47.598994,0,42660,1,
"","Seattle","WA","Seattle-Tacoma-Bellevue WA","6th Ave S & S King St",-122.326412,47.598488,0,42660,1,
"","Seattle","WA","Seattle-Tacoma-Bellevue WA","Seattle University / E Columbia St & 12th Ave",-122.316651,47.609239,0,42660,1,
"","Seattle","WA","Seattle-Tacoma-Bellevue WA","Eastlake Ave E & E Allison St",-122.322983,47.649090,2,42660,1,
"","Seattle","WA","Seattle-Tacoma-Bellevue WA","E Blaine St & Fairview Ave E",-122.326634,47.634831,0,42660,1,
"","Seattle","WA","Seattle-Tacoma-Bellevue WA","Fred Hutchinson Cancer Research Center / Fairview Ave N & Wa",-122.332576,47.627643,0,42660,1,
"","Seattle","WA","Seattle-Tacoma-Bellevue WA","Children's Hospital / Sandpoint Way NE & 40th Ave NE",-122.284119,47.663509,0,42660,1,
"","Seattle","WA","Seattle-Tacoma-Bellevue WA","9th Ave N & Mercer St",-122.339566,47.624403,0,42660,1,
"","Seattle","WA","Seattle-Tacoma-Bellevue WA","12th Ave & E Mercer St",-122.316811,47.624142,0,42660,1,
"","Seattle","WA","Seattle-Tacoma-Bellevue WA","Bellevue Ave & E Pine St",-122.326729,47.615456,0,42660,1,
"","Seattle","WA","Seattle-Tacoma-Bellevue WA","Harvard Ave & E Pine St",-122.322083,47.615517,0,42660,1,
"","Seattle","WA","Seattle-Tacoma-Bellevue WA","Cal Anderson Park / 11th Ave & Pine St",-122.318245,47.615486,0,42660,1,
"","Seattle","WA","Seattle-Tacoma-Bellevue WA","E Pine St & 16th Ave",-122.311752,47.615330,0,42660,1,
"","Seattle","WA","Seattle-Tacoma-Bellevue WA","12th Ave & E Denny Way",-122.317017,47.618549,0,42660,1,
"","Seattle","WA","Seattle-Tacoma-Bellevue WA","15th Ave E & E Thomas St",-122.312805,47.620712,0,42660,1,
"","Seattle","WA","Seattle-Tacoma-Bellevue WA","Summit Ave E & E Republican St",-122.325279,47.623367,0,42660,1,
"","Seattle","WA","Seattle-Tacoma-Bellevue WA","E Harrison St & Broadway Ave E",-122.321251,47.622063,0,42660,1,
"","Seattle","WA","Seattle-Tacoma-Bellevue WA","Summit Ave & E Denny Way",-122.325249,47.618633,0,42660,1,
"","Seattle","WA","Seattle-Tacoma-Bellevue WA","2nd Ave & Spring St",-122.335768,47.605950,0,42660,1,
"","Seattle","WA","Seattle-Tacoma-Bellevue WA","Pine St & 9th Ave",-122.331777,47.613715,0,42660,1,
"","Seattle","WA","Seattle-Tacoma-Bellevue WA","City Hall / 4th Ave & James St",-122.330409,47.603509,0,42660,1,
"","Seattle","WA","Seattle-Tacoma-Bellevue WA","7th Ave & Union St",-122.332447,47.610731,0,42660,1,
"","Seattle","WA","Seattle-Tacoma-Bellevue WA","2nd Ave & Blanchard St",-122.344208,47.613110,0,42660,1,
"","Seattle","WA","Seattle-Tacoma-Bellevue WA","6th Ave & Blanchard St",-122.341102,47.616094,0,42660,1,
"","Seattle","WA","Seattle-Tacoma-Bellevue WA","2nd Ave & Vine St",-122.348564,47.615829,0,42660,1,
"","Seattle","WA","Seattle-Tacoma-Bellevue WA","3rd Ave & Broad St",-122.350964,47.618418,0,42660,1,
"","Seattle","WA","Seattle-Tacoma-Bellevue WA","Pioneer Square",-122.331400,47.602700,0,42660,1,
"","Seattle","WA","Seattle-Tacoma-Bellevue WA","International District/Chinatown",-122.327700,47.599200,0,42660,1,
"","Seattle","WA","Seattle-Tacoma-Bellevue WA","King Street Station",-122.330000,47.599100,0,42660,1,
"","Seattle","WA","Seattle-Tacoma-Bellevue WA","Seattle Ferry Terminal (Pier 52)",-122.338030,47.602040,0,42660,1,
"","Seattle","WA","Seattle-Tacoma-Bellevue WA","King Street Station",-122.328430,47.598910,0,42660,1,
"","Seattle","WA","Seattle-Tacoma-Bellevue WA","King Street Station",-122.328430,47.598910,0,42660,1,
"","Seattle","WA","Seattle-Tacoma-Bellevue WA","",-122.335596,47.609221,0,42660,1,
"","Seattle","WA","Seattle-Tacoma-Bellevue WA","",-122.333815,47.616260,0,42660,1,
"","Seattle","WA","Seattle-Tacoma-Bellevue WA","",-122.339640,47.610184,0,42660,1,
"","Seattle","WA","Seattle-Tacoma-Bellevue WA","University Street",-122.335300,47.607000,0,42660,1,
"","Seattle","WA","Seattle-Tacoma-Bellevue WA","Westlake",-122.337700,47.611200,0,42660,1,
"","Seattle","WA","Seattle-Tacoma-Bellevue WA","Westlake Hub (Pacific Place station)",-122.337700,47.611200,0,42660,1,
"","Vashon","WA","Seattle-Tacoma-Bellevue WA","Vashon Ferry",-122.458610,47.507130,0,42660,1,
"","Tahlequah","WA","Seattle-Tacoma-Bellevue WA","Tahlequah Ferry Terminal",-122.506110,47.332780,0,42660,1,
"","Kent","WA","Seattle-Tacoma-Bellevue WA","Kent Station",-122.233040,47.384060,0,42660,1,
"","Edmonds","WA","Seattle-Tacoma-Bellevue WA","",-122.377174,47.809715,0,42660,1,
"","Edmonds","WA","Seattle-Tacoma-Bellevue WA","Edmonds Intermodal Station",-122.383070,47.811300,0,42660,1,
"","Edmonds","WA","Seattle-Tacoma-Bellevue WA","Edmonds Ferry Terminal",-122.376110,47.810830,0,42660,1,
"","Edmonds","WA","Seattle-Tacoma-Bellevue WA","Edmonds Intermodal Station",-122.383070,47.811300,0,42660,1,
"","Auburn","WA","Seattle-Tacoma-Bellevue WA","Auburn Station",-122.232000,47.305240,0,42660,1,
"","Ephrata","WA","Moses Lake WA","Ephrata Intermodal Center",-119.548640,47.320590,3,34180,2,
"","Pasco","WA","Walla Walla WA","",-119.013534,46.198051,0,47460,1,
"","Wallingford","VT","Rutland VT","Cumberland Farms",-72.976830,43.476162,0,40860,2,
"","Middlebury","VT","Hartford-West Hartford-East Hartford CT","",-72.249523,41.808431,0,25540,1,
"","Killington","VT","Rutland VT","Inn at Long Trail Crossing",-72.833097,43.664104,0,40860,2,
"","Killington","VT","Rutland VT","Chamber of Commerce",-72.804267,43.668446,0,40860,2,
"","Castleton","VT","Rutland VT","Castleton Depot",-73.171280,43.613460,0,40860,2,
"","Manchester","VT","Bennington VT","Zoeys Double Hex Restaurant",-73.028227,43.173882,3,13540,2,
"","Brandon","VT","Rutland VT","",-73.080925,43.795216,0,40860,2,
"","Rutland","VT","Rutland VT","Marble Valley Regional Transportation Center",-72.977740,43.608097,0,40860,2,
"","Mendon","VT","Rutland VT","Park and ride",-72.928387,43.647438,0,40860,2,
"","Rutland","VT","Rutland VT","Amtrak Station",-72.982250,43.607260,0,40860,2,
"","Waterbury","VT","Barre VT","Amtrak Station",-72.752470,44.335070,3,12740,2,
"","Montpelier","VT","Barre VT","Dog River Park and Ride exit 8 of I-89",-72.594897,44.255096,3,12740,2,
"","Montpelier","VT","Barre VT","Bafitos",-72.577000,44.258600,3,12740,2,
"","Montpelier","VT","Barre VT","Amtrak Station",-72.608680,44.257360,3,12740,2,
"","St Albans","VT","Burlington-South Burlington VT","Amtrak Station",-73.086410,44.810950,0,15540,1,
"","Highgate","VT","Burlington-South Burlington VT","",-73.025540,44.959750,0,15540,1,
"","Essex Junction","VT","Burlington-South Burlington VT","Amtrak Station",-73.110450,44.492570,0,15540,1,
"","South Burlington","VT","Burlington-South Burlington VT","Burlington International Airport",-73.153300,44.471900,1,15540,1,
"","Burlington","VT","Burlington-South Burlington VT","North end of University Place near the intersection with Col",-73.189980,44.483387,0,15540,1,
"","Burlington","VT","Burlington-South Burlington VT","King Street Dock",-73.221770,44.476620,0,15540,1,
"","Brattleboro","VT","","Shell Gas Station",-72.557000,42.884700,3,,0,
"","Brattleboro","VT","","",-72.560844,42.850380,3,,0,
"","Brattleboro","VT","","Amtrak Station",-72.550350,42.838700,3,,0,
"","Bennington","VT","Bennington VT","",-73.193184,42.879090,3,13540,2,
"","Bellows Falls","VT","","Amtrak Station",-72.445000,43.135700,3,,0,
"","Bellows Falls","VT","","Amtrak Station",-72.445450,43.135830,3,,0,
"","Woodstock","VT","Claremont-Lebanon NH-VT","Town Parking lot",-72.509779,43.626738,0,17200,2,
"","Windsor","VT","Claremont-Lebanon NH-VT","Amtrak Station",-72.385450,43.480440,0,17200,2,
"","Randolph","VT","Claremont-Lebanon NH-VT","Amtrak Station",-72.665850,43.922850,0,17200,2,
"","Quechee","VT","Claremont-Lebanon NH-VT","Jiffy Mart",-72.418426,43.642692,0,17200,2,
"","Bridgewater","VT","Claremont-Lebanon NH-VT","Olson Bridgewater Store",-72.656159,43.588025,0,17200,2,
"","White River","VT","Claremont-Lebanon NH-VT","Greyhound Station",-72.335000,43.646800,0,17200,2,
"","White River Junction","VT","Claremont-Lebanon NH-VT","Amtrak Station",-72.317950,43.648560,0,17200,2,
"","Danville","VA","Danville VA","Amtrak Station",-79.384320,36.583700,3,19260,2,
"","Lynchburg","VA","Lynchburg VA","Greyhound Bus Station",-79.157000,37.406800,0,31340,1,
"","Lynchburg","VA","Lynchburg VA","Kemper Street Station",-79.157460,37.407020,0,31340,1,
"","Clifton Forge","VA","","Amtrak Station",-79.836490,37.811770,3,,0,
"","Staunton","VA","Staunton-Waynesboro VA","Amtrak Station",-79.072720,38.147780,0,44420,1,
"","Wytheville","VA","","McDonalds",-80.949100,36.947500,3,,0,
"","Marion","VA","","",-81.507000,36.837700,3,,0,
"","Christiansburg","VA","Blacksburg-Christiansburg-Radford VA","Curbside bus stop in front of Falling Branch Park & Ride",-80.370400,37.126900,3,13980,1,
"","Blacksburg","VA","Blacksburg-Christiansburg-Radford VA","VA Tech Squires Student Center",-80.418336,37.230049,3,13980,1,
"","Roanoke","VA","Roanoke VA","",-79.957227,37.358266,0,40220,1,
"","Roanoke","VA","Roanoke VA","Civic Center Parking Lot",-79.936244,37.279915,0,40220,1,
"","Roanoke","VA","Roanoke VA","",-79.941000,37.272100,0,40220,1,
"","South Hill","VA","","",-78.119190,36.720712,3,,0,
"","South Hill","VA","","",-78.114000,36.713900,3,,0,
"","Colonial Heights","VA","Richmond VA","",-77.411355,37.258917,0,40060,1,
"","Petersburg","VA","Richmond VA","",-77.404800,37.227500,0,40060,1,
"","Petersburg","VA","Richmond VA","Ettrick Station",-77.428970,37.241620,0,40060,1,
"","Portsmouth","VA","Virginia Beach-Norfolk-Newport News VA-NC","High Street Landing",-76.297060,36.834560,0,47260,1,
"","Newport News","VA","Virginia Beach-Norfolk-Newport News VA-NC","",-76.465600,37.118761,0,47260,1,
"","Newport News","VA","Virginia Beach-Norfolk-Newport News VA-NC","",-76.351816,37.043486,0,47260,1,
"","Hampton","VA","Virginia Beach-Norfolk-Newport News VA-NC","",-76.361191,37.045136,0,47260,1,
"","Hampton","VA","Virginia Beach-Norfolk-Newport News VA-NC","",-76.332613,37.024066,0,47260,1,
"","Hampton","VA","Virginia Beach-Norfolk-Newport News VA-NC","",-76.346000,37.029900,0,47260,1,
"","Hampton","VA","Virginia Beach-Norfolk-Newport News VA-NC","Curbside bus stop in front of Monica Hair Salon",-76.352000,37.043500,0,47260,1,
"","Newport News","VA","Virginia Beach-Norfolk-Newport News VA-NC","",-76.517486,37.126582,0,47260,1,
"","Newport News","VA","Virginia Beach-Norfolk-Newport News VA-NC","Amtrak Station",-76.451050,37.019360,0,47260,1,
"","Newport News","VA","Virginia Beach-Norfolk-Newport News VA-NC","Amtrak Station",-76.451050,37.019360,0,47260,1,
"","Norfolk","VA","Virginia Beach-Norfolk-Newport News VA-NC","Amtrak Station",-76.276288,36.843106,0,47260,1,
"","Norfolk","VA","Virginia Beach-Norfolk-Newport News VA-NC","Amtrak Station",-76.276288,36.843106,0,47260,1,
"","Norfolk","VA","Virginia Beach-Norfolk-Newport News VA-NC","Greyhound Bus Station",-76.288000,36.854800,0,47260,1,
"","Norfolk","VA","Virginia Beach-Norfolk-Newport News VA-NC","Waterside",-76.283140,36.843090,0,47260,1,
"","Norfolk","VA","Virginia Beach-Norfolk-Newport News VA-NC","",-76.220010,36.856273,0,47260,1,
"","Virginia Beach","VA","Virginia Beach-Norfolk-Newport News VA-NC","",-76.200916,36.853542,0,47260,1,
"","Norfolk","VA","Virginia Beach-Norfolk-Newport News VA-NC","",-76.211284,36.848588,0,47260,1,
"","Norfolk","VA","Virginia Beach-Norfolk-Newport News VA-NC","",-76.181231,36.848349,0,47260,1,
"","Norfolk","VA","Virginia Beach-Norfolk-Newport News VA-NC","Curbside bus stop in front of Military Crossing Shopping Cen",-76.201700,36.855400,0,47260,1,
"","Virginia Beach","VA","Virginia Beach-Norfolk-Newport News VA-NC","Curbside bus stop",-76.181200,36.848100,0,47260,1,
"","Virginia Beach","VA","Virginia Beach-Norfolk-Newport News VA-NC","",-76.168968,36.851448,0,47260,1,
"","Virginia Beach","VA","Virginia Beach-Norfolk-Newport News VA-NC","Curbside bus stop in front of Food Lyons",-76.169600,36.869900,0,47260,1,
"","Virginia Beach","VA","Virginia Beach-Norfolk-Newport News VA-NC","",-75.978069,36.847257,0,47260,1,
"","Virginia Beach","VA","Virginia Beach-Norfolk-Newport News VA-NC","",-75.991400,36.842000,0,47260,1,
"","Tangier","VA","","Ferry Dock",-75.991420,37.827660,3,,0,
"","Onancock","VA","","Ferry Dock",-75.757920,37.709010,3,,0,
"","Oak Hall","VA","","",-75.545000,37.938400,3,,0,
"","Exmore","VA","","",-75.823000,37.540200,3,,0,
"","Richmond","VA","Richmond VA","",-77.474766,37.565700,0,40060,1,
"","Richmond","VA","Richmond VA","",-77.474119,37.565067,0,40060,1,
"","Richmond","VA","Richmond VA","Curbside bus stop in front of 7-Eleven",-77.470000,37.562500,0,40060,1,
"","Richmond","VA","Richmond VA","Greyhound Bus Station",-77.466000,37.569600,0,40060,1,
"","Richmond","VA","Richmond VA","Staples Mill Road Station",-77.496580,37.614250,0,40060,1,
"","Richmond","VA","Richmond VA","Staples Mill Road Station",-77.496580,37.614250,0,40060,1,
"","Richmond","VA","Richmond VA","Curbside bus stop",-77.449000,37.636600,0,40060,1,
"","Richmond","VA","Richmond VA","Curbside bus stop in front of Main St Travel plaza across fr",-77.429100,37.533800,0,40060,1,
"","Richmond","VA","Richmond VA","Main Street Station",-77.429790,37.534060,0,40060,1,
"","Williamsburg","VA","Virginia Beach-Norfolk-Newport News VA-NC","B & W Rental Inc",-76.708000,37.276000,0,47260,1,
"","Williamsburg","VA","Virginia Beach-Norfolk-Newport News VA-NC","Williamsburg Transportation Center",-76.708050,37.275730,0,47260,1,
"","Ashland","VA","Richmond VA","Amtrak Station",-77.481670,37.759230,0,40060,1,
"","Charlottesville","VA","Charlottesville VA","Amtrak Station",-78.492110,38.032030,0,16820,1,
"","Charlottesville","VA","Charlottesville VA","Greyhound Station",-78.485000,38.030400,0,16820,1,
"","Harrisonburg","VA","Harrisonburg VA","",-78.854380,38.441564,3,25500,1,
"","Culpepper","VA","Washington-Arlington-Alexandria DC-VA-MD-WV","Amtrak Station",-77.993040,38.472920,0,47900,1,
"","Stafford","VA","Washington-Arlington-Alexandria DC-VA-MD-WV","Brooke Station",-77.383840,38.386930,0,47900,1,
"","Reedville","VA","","Buzzardss Point Marina",-76.276110,37.841940,3,,0,
"","Falmouth","VA","Washington-Arlington-Alexandria DC-VA-MD-WV","Leeland Station",-77.437340,38.347060,0,47900,1,
"","Fredericksburg","VA","Washington-Arlington-Alexandria DC-VA-MD-WV","",-77.503168,38.293262,0,47900,1,
"","Fredericksburg","VA","Washington-Arlington-Alexandria DC-VA-MD-WV","VRE/Amtrak Station",-77.456930,38.298560,0,47900,1,
"","Fredericksburg","VA","Washington-Arlington-Alexandria DC-VA-MD-WV","",-77.481000,38.302700,0,47900,1,
"","Fredericksburg","VA","Washington-Arlington-Alexandria DC-VA-MD-WV","VRE/Amtrak Station",-77.456930,38.298560,0,47900,1,
"","Alexandria","VA","Washington-Arlington-Alexandria DC-VA-MD-WV","Eisenhower Avenue Yellow Line Station",-77.071076,38.800633,0,47900,1,
"","Alexandria","VA","Washington-Arlington-Alexandria DC-VA-MD-WV","Royal & Wilkes St",-77.044700,38.799267,0,47900,1,
"","Alexandria","VA","Washington-Arlington-Alexandria DC-VA-MD-WV","Madison & N Henry St",-77.049468,38.813485,0,47900,1,
"","Alexandria","VA","Washington-Arlington-Alexandria DC-VA-MD-WV","Saint Asaph & Madison St",-77.044097,38.812718,0,47900,1,
"","Alexandria","VA","Washington-Arlington-Alexandria DC-VA-MD-WV","Eisenhower Avenue Yellow Line Station",-77.070806,38.800444,0,47900,1,
"","Alexandria","VA","Washington-Arlington-Alexandria DC-VA-MD-WV","Van Dorn Street Blue Line Station",-77.128454,38.799528,0,47900,1,
"","Alexandria","VA","Washington-Arlington-Alexandria DC-VA-MD-WV","Huntington Yellow Line Station",-77.075317,38.793748,0,47900,1,
"","Alexandria","VA","Washington-Arlington-Alexandria DC-VA-MD-WV","Radford & Osage St",-77.086031,38.828437,0,47900,1,
"","Alexandria","VA","Washington-Arlington-Alexandria DC-VA-MD-WV","Commonwealth & E Monroe Ave",-77.062973,38.820265,0,47900,1,
"","Alexandria","VA","Washington-Arlington-Alexandria DC-VA-MD-WV","Commonwealth Ave & Oak St",-77.061715,38.812711,0,47900,1,
"","Alexandria","VA","Washington-Arlington-Alexandria DC-VA-MD-WV","Potomac Ave & Main Line Blvd",-77.049265,38.822738,0,47900,1,
"","Alexandria","VA","Washington-Arlington-Alexandria DC-VA-MD-WV","King St Metro North / Cameron St",-77.059817,38.807040,0,47900,1,
"","Alexandria","VA","Washington-Arlington-Alexandria DC-VA-MD-WV","Amtrak/VRE Station/King Street Station",-77.062650,38.806240,0,47900,1,
"","Alexandria","VA","Washington-Arlington-Alexandria DC-VA-MD-WV","Braddock Road Blue and Yellow Line Station",-77.053747,38.813676,0,47900,1,
"","Alexandria","VA","Washington-Arlington-Alexandria DC-VA-MD-WV","King Street Blue and Yellow Line Station",-77.061285,38.806286,0,47900,1,
"","Alexandria","VA","Washington-Arlington-Alexandria DC-VA-MD-WV","Amtrak/VRE Station/King Street Station",-77.062650,38.806240,0,47900,1,
"","Arlington","VA","Washington-Arlington-Alexandria DC-VA-MD-WV","Arlington Cemetery Blue Line Station",-77.063574,38.884226,0,47900,1,
"","Arlington","VA","Washington-Arlington-Alexandria DC-VA-MD-WV","Arlington Cemetery Blue Line Station",-77.063775,38.884550,0,47900,1,
"","Arlington","VA","Washington-Arlington-Alexandria DC-VA-MD-WV","",-77.071261,38.897548,0,47900,1,
"","Arlington","VA","Washington-Arlington-Alexandria DC-VA-MD-WV","Rosslyn Blue and Orange Line Station",-77.071690,38.895860,0,47900,1,
"","Arlington","VA","Washington-Arlington-Alexandria DC-VA-MD-WV","Lee Hwy & N Woodstock St",-77.118009,38.898301,0,47900,1,
"","Arlington","VA","Washington-Arlington-Alexandria DC-VA-MD-WV","S Four Mile Run & Walter Reed Dr",-77.095431,38.847360,0,47900,1,
"","Arlington","VA","Washington-Arlington-Alexandria DC-VA-MD-WV","Washington Blvd & N Frederick St",-77.127671,38.884829,0,47900,1,
"","Arlington","VA","Washington-Arlington-Alexandria DC-VA-MD-WV","Wilson Blvd & N Illinois St",-77.127120,38.876528,0,47900,1,
"","Arlington","VA","Washington-Arlington-Alexandria DC-VA-MD-WV","East Falls Church Metro/Sycamore St & 19th St N",-77.155988,38.884859,0,47900,1,
"","Arlington","VA","Washington-Arlington-Alexandria DC-VA-MD-WV","East Falls Church Orange Line Station",-77.156498,38.885883,0,47900,1,
"","Arlington","VA","Washington-Arlington-Alexandria DC-VA-MD-WV","Ronald Reagan Washington National Airport Blue and Yellow Li",-77.043710,38.852686,1,47900,1,
"","Arlington","VA","Washington-Arlington-Alexandria DC-VA-MD-WV","Pentagon City Blue and Yellow Line Station",-77.059913,38.862648,0,47900,1,
"","Arlington","VA","Washington-Arlington-Alexandria DC-VA-MD-WV","Eads St & 15th St S",-77.053199,38.858662,0,47900,1,
"","Arlington","VA","Washington-Arlington-Alexandria DC-VA-MD-WV","Pentagon Blue and Yellow Line Station",-77.053900,38.869300,0,47900,1,
"","Arlington","VA","Washington-Arlington-Alexandria DC-VA-MD-WV","Pentagon City Blue and Yellow Line Station",-77.059123,38.862578,0,47900,1,
"","Arlington","VA","Washington-Arlington-Alexandria DC-VA-MD-WV","Crystal City Blue and Yellow Line Station",-77.051292,38.858016,0,47900,1,
"","Arlington","VA","Washington-Arlington-Alexandria DC-VA-MD-WV","Ronald Reagan Washington National Airport Blue and Yellow Li",-77.044373,38.854331,1,47900,1,
"","Arlington","VA","Washington-Arlington-Alexandria DC-VA-MD-WV","Crystal City Station",-77.048360,38.858180,0,47900,1,
"","Arlington","VA","Washington-Arlington-Alexandria DC-VA-MD-WV","Court House Orange Line Station",-77.085038,38.891720,0,47900,1,
"","Arlington","VA","Washington-Arlington-Alexandria DC-VA-MD-WV","Clarendon Orange Line Station",-77.095131,38.887170,0,47900,1,
"","Arlington","VA","Washington-Arlington-Alexandria DC-VA-MD-WV","Court House Orange Line Station",-77.084959,38.891293,0,47900,1,
"","Arlington","VA","Washington-Arlington-Alexandria DC-VA-MD-WV","Ballston-MU Orange Line Station",-77.111312,38.881915,0,47900,1,
"","Arlington","VA","Washington-Arlington-Alexandria DC-VA-MD-WV","Virginia Square-GMU Orange Line Station",-77.103295,38.882824,0,47900,1,
"","Woodbridge","VA","Washington-Arlington-Alexandria DC-VA-MD-WV","VRE Station",-77.248280,38.657440,0,47900,1,
"","Woodbridge","VA","Washington-Arlington-Alexandria DC-VA-MD-WV","The Coffee Club Cafe Inc",-77.247000,38.659300,0,47900,1,
"","Woodbridge","VA","Washington-Arlington-Alexandria DC-VA-MD-WV","VRE Station",-77.248280,38.657440,0,47900,1,
"","Vienna","VA","Washington-Arlington-Alexandria DC-VA-MD-WV","Spring Hill",-77.240831,38.929308,0,47900,1,
"","Vienna","VA","Washington-Arlington-Alexandria DC-VA-MD-WV","Spring Hill",-77.241672,38.928372,0,47900,1,
"","Vienna","VA","Washington-Arlington-Alexandria DC-VA-MD-WV","Greensboro",-77.232972,38.921114,0,47900,1,
"","Vienna","VA","Washington-Arlington-Alexandria DC-VA-MD-WV","Greensboro",-77.234190,38.920680,0,47900,1,
"","Vienna","VA","Washington-Arlington-Alexandria DC-VA-MD-WV","Dunn Loring-Merrifield Orange Line Station",-77.228438,38.882831,0,47900,1,
"","Springfield","VA","Washington-Arlington-Alexandria DC-VA-MD-WV","Backlick Road Station",-77.179020,38.794460,0,47900,1,
"","Springfield","VA","Washington-Arlington-Alexandria DC-VA-MD-WV","Franconia-Springfield Blue Line Station",-77.169181,38.766763,0,47900,1,
"","Springfield","VA","Washington-Arlington-Alexandria DC-VA-MD-WV","Greyhound Bus Station",-77.172000,38.769900,0,47900,1,
"","Springfield","VA","Washington-Arlington-Alexandria DC-VA-MD-WV","Franconia-Springfield Station",-77.170550,38.765020,0,47900,1,
"","Quantico","VA","Washington-Arlington-Alexandria DC-VA-MD-WV","Amtrak/VRE Station",-77.293050,38.522010,0,47900,1,
"","Quantico","VA","Washington-Arlington-Alexandria DC-VA-MD-WV","Amtrak/VRE Station",-77.293050,38.522010,0,47900,1,
"","McLean","VA","Washington-Arlington-Alexandria DC-VA-MD-WV","Tysons",-77.222047,38.920640,0,47900,1,
"","McLean","VA","Washington-Arlington-Alexandria DC-VA-MD-WV","Tysons",-77.222492,38.919793,0,47900,1,
"","McLean","VA","Washington-Arlington-Alexandria DC-VA-MD-WV","McLean",-77.208334,38.924593,0,47900,1,
"","Lorton","VA","Washington-Arlington-Alexandria DC-VA-MD-WV","Lorton VRE Station",-77.214730,38.714870,0,47900,1,
"","Lorton","VA","Washington-Arlington-Alexandria DC-VA-MD-WV","Amtrak Auto Train Terminal",-77.221370,38.705960,0,47900,1,
"","Falls Church","VA","Washington-Arlington-Alexandria DC-VA-MD-WV","West Falls Church-VT/UVA Orange Line Station",-77.189164,38.901110,0,47900,1,
"","Falls Church","VA","Washington-Arlington-Alexandria DC-VA-MD-WV","West Falls Church-VT/UVA Orange Line Station",-77.188917,38.900315,0,47900,1,
"","Fairfax","VA","Washington-Arlington-Alexandria DC-VA-MD-WV","Vienna/Fairfax-GMU Orange Line Station",-77.271269,38.877354,0,47900,1,
"","Fairfax","VA","Washington-Arlington-Alexandria DC-VA-MD-WV","Vienna/Fairfax-GMU Orange Line Station",-77.271548,38.878335,0,47900,1,
"","Burke","VA","Washington-Arlington-Alexandria DC-VA-MD-WV","Rolling Road Station",-77.259540,38.794130,0,47900,1,
"","Burke","VA","Washington-Arlington-Alexandria DC-VA-MD-WV","Burke Centre Station",-77.300660,38.797320,0,47900,1,
"","Arlington","VA","Washington-Arlington-Alexandria DC-VA-MD-WV","S Walter Reed Dr & 8th St S",-77.087870,38.866120,0,47900,1,
"","Arlington","VA","Washington-Arlington-Alexandria DC-VA-MD-WV","Army Navy Dr & S Nash St",-77.068242,38.862467,0,47900,1,
"","Arlington","VA","Washington-Arlington-Alexandria DC-VA-MD-WV","Lee Hwy & N Kirkwood Rd",-77.097130,38.895377,0,47900,1,
"","Arlington","VA","Washington-Arlington-Alexandria DC-VA-MD-WV","21st St N & N Pierce St",-77.078317,38.898984,0,47900,1,
"","Arlington","VA","Washington-Arlington-Alexandria DC-VA-MD-WV","N Nelson St & Lee Hwy",-77.105246,38.895929,0,47900,1,
"","Arlington","VA","Washington-Arlington-Alexandria DC-VA-MD-WV","S Joyce & 16th St S",-77.063275,38.859254,0,47900,1,
"","Arlington","VA","Washington-Arlington-Alexandria DC-VA-MD-WV","6th & S Ball St",-77.048672,38.864702,0,47900,1,
"","Arlington","VA","Washington-Arlington-Alexandria DC-VA-MD-WV","Court House Metro / 15th & N Uhle St",-77.084801,38.890612,0,47900,1,
"","Alexandria","VA","Washington-Arlington-Alexandria DC-VA-MD-WV","Mount Vernon Ave & Kennedy St",-77.059821,38.833077,0,47900,1,
"","Alexandria","VA","Washington-Arlington-Alexandria DC-VA-MD-WV","Monroe Ave & Leslie Ave",-77.053096,38.820932,0,47900,1,
"","Alexandria","VA","Washington-Arlington-Alexandria DC-VA-MD-WV","Mount Vernon Ave & E Del Ray Ave",-77.058541,38.825950,0,47900,1,
"","Alexandria","VA","Washington-Arlington-Alexandria DC-VA-MD-WV","Mount Vernon Ave & E Nelson Ave",-77.057619,38.820064,0,47900,1,
"","Alexandria","VA","Washington-Arlington-Alexandria DC-VA-MD-WV","Ballenger Ave & Dulaney St",-77.063562,38.802677,0,47900,1,
"","Alexandria","VA","Washington-Arlington-Alexandria DC-VA-MD-WV","Potomac Greens Dr & Slaters Ln",-77.047494,38.821750,0,47900,1,
"","Alexandria","VA","Washington-Arlington-Alexandria DC-VA-MD-WV","Eisenhower Ave & Mill Race Ln",-77.068952,38.801111,0,47900,1,
"","Arlington","VA","Washington-Arlington-Alexandria DC-VA-MD-WV","Lee Hwy & N Scott St",-77.080851,38.897612,0,47900,1,
"","Arlington","VA","Washington-Arlington-Alexandria DC-VA-MD-WV","Arlington Blvd & S George Mason Dr/NFATC",-77.104503,38.869442,0,47900,1,
"","Arlington","VA","Washington-Arlington-Alexandria DC-VA-MD-WV","Lee Hwy & N Cleveland St",-77.091690,38.894941,0,47900,1,
"","Alexandria","VA","Washington-Arlington-Alexandria DC-VA-MD-WV","Duke St & John Carlyle St",-77.060866,38.804378,0,47900,1,
"","Arlington","VA","Washington-Arlington-Alexandria DC-VA-MD-WV","Iwo Jima Memorial/N Meade & 14th St N",-77.071301,38.889920,0,47900,1,
"","Arlington","VA","Washington-Arlington-Alexandria DC-VA-MD-WV","Shirlington Transit Center / S Quincy & Randolph St",-77.087083,38.839912,0,47900,1,
"","Arlington","VA","Washington-Arlington-Alexandria DC-VA-MD-WV","Rolfe St & 9th St S",-77.076131,38.866471,0,47900,1,
"","Arlington","VA","Washington-Arlington-Alexandria DC-VA-MD-WV","TJ Cmty Ctr / 2nd St & S Old Glebe Rd",-77.095596,38.869418,0,47900,1,
"","Arlington","VA","Washington-Arlington-Alexandria DC-VA-MD-WV","Washington Blvd & Walter Reed Dr",-77.082104,38.873219,0,47900,1,
"","Arlington","VA","Washington-Arlington-Alexandria DC-VA-MD-WV","31st & Woodrow St S",-77.094820,38.837666,0,47900,1,
"","Arlington","VA","Washington-Arlington-Alexandria DC-VA-MD-WV","Long Bridge Park/Long Bridge Dr & 6th St S",-77.048260,38.866460,0,47900,1,
"","Arlington","VA","Washington-Arlington-Alexandria DC-VA-MD-WV","Arlington Blvd & Fillmore St",-77.089233,38.873755,0,47900,1,
"","Arlington","VA","Washington-Arlington-Alexandria DC-VA-MD-WV","Pershing & N George Mason Dr",-77.107906,38.871822,0,47900,1,
"","Arlington","VA","Washington-Arlington-Alexandria DC-VA-MD-WV","Columbia Pike & S Dinwiddie St / Arlington Mill Community Ce",-77.111530,38.856319,0,47900,1,
"","Arlington","VA","Washington-Arlington-Alexandria DC-VA-MD-WV","Columbia Pike & S Walter Reed Dr",-77.086599,38.862478,0,47900,1,
"","Arlington","VA","Washington-Arlington-Alexandria DC-VA-MD-WV","Columbia Pike & S Orme St",-77.072315,38.867262,0,47900,1,
"","Arlington","VA","Washington-Arlington-Alexandria DC-VA-MD-WV","N Pershing Dr & Wayne St",-77.085960,38.880705,0,47900,1,
"","Arlington","VA","Washington-Arlington-Alexandria DC-VA-MD-WV","S Stafford & 34th St S",-77.087323,38.834108,0,47900,1,
"","Arlington","VA","Washington-Arlington-Alexandria DC-VA-MD-WV","S George Mason Dr & Four Mile Run",-77.105022,38.852248,0,47900,1,
"","Arlington","VA","Washington-Arlington-Alexandria DC-VA-MD-WV","S George Mason Dr & 13th St S",-77.100555,38.854691,0,47900,1,
"","Arlington","VA","Washington-Arlington-Alexandria DC-VA-MD-WV","S Kenmore & 24th St S",-77.084918,38.848454,0,47900,1,
"","Arlington","VA","Washington-Arlington-Alexandria DC-VA-MD-WV","S Arlington Mill Dr & Campbell Ave",-77.089555,38.842320,0,47900,1,
"","Arlington","VA","Washington-Arlington-Alexandria DC-VA-MD-WV","S Oakland St & Columbia Pike",-77.095860,38.860789,0,47900,1,
"","Arlington","VA","Washington-Arlington-Alexandria DC-VA-MD-WV","S Four Mile Run Dr & S Shirlington Rd",-77.085931,38.844400,0,47900,1,
"","Arlington","VA","Washington-Arlington-Alexandria DC-VA-MD-WV","S Troy St & 26th St S",-77.075104,38.847977,0,47900,1,
"","Arlington","VA","Washington-Arlington-Alexandria DC-VA-MD-WV","28th St S & S Meade St",-77.069275,38.846222,0,47900,1,
"","Arlington","VA","Washington-Arlington-Alexandria DC-VA-MD-WV","Walter Reed Community Center / Walter Reed Dr & 16th St S",-77.086733,38.857803,0,47900,1,
"","Arlington","VA","Washington-Arlington-Alexandria DC-VA-MD-WV","Columbia Pike & S Courthouse Rd",-77.080319,38.863833,0,47900,1,
"","Arlington","VA","Washington-Arlington-Alexandria DC-VA-MD-WV","Arlington Blvd & N Queen St",-77.077294,38.889365,0,47900,1,
"","Arlington","VA","Washington-Arlington-Alexandria DC-VA-MD-WV","Barton St & 10th St N",-77.087770,38.884961,0,47900,1,
"","Arlington","VA","Washington-Arlington-Alexandria DC-VA-MD-WV","Utah St & 11th St N",-77.113905,38.883669,0,47900,1,
"","Alexandria","VA","Washington-Arlington-Alexandria DC-VA-MD-WV","King St Metro",-77.060720,38.805767,0,47900,1,
"","Alexandria","VA","Washington-Arlington-Alexandria DC-VA-MD-WV","Braddock Rd Metro",-77.052808,38.814577,0,47900,1,
"","Alexandria","VA","Washington-Arlington-Alexandria DC-VA-MD-WV","Henry St & Pendleton St",-77.050276,38.811456,0,47900,1,
"","Alexandria","VA","Washington-Arlington-Alexandria DC-VA-MD-WV","Commerce St & Fayette St",-77.052930,38.805648,0,47900,1,
"","Alexandria","VA","Washington-Arlington-Alexandria DC-VA-MD-WV","King St & Patrick St",-77.049883,38.805317,0,47900,1,
"","Alexandria","VA","Washington-Arlington-Alexandria DC-VA-MD-WV","Saint Asaph St & Pendleton  St",-77.044664,38.810743,0,47900,1,
"","Alexandria","VA","Washington-Arlington-Alexandria DC-VA-MD-WV","Market Square / King St & Royal St",-77.043363,38.804718,0,47900,1,
"","Alexandria","VA","Washington-Arlington-Alexandria DC-VA-MD-WV","Prince St & Union St",-77.040363,38.803124,0,47900,1,
"","Arlington","VA","Washington-Arlington-Alexandria DC-VA-MD-WV","Fairfax Dr & Kenmore St",-77.101080,38.884616,0,47900,1,
"","Arlington","VA","Washington-Arlington-Alexandria DC-VA-MD-WV","N Quincy St & Wilson Blvd",-77.107673,38.880151,0,47900,1,
"","Arlington","VA","Washington-Arlington-Alexandria DC-VA-MD-WV","Glebe Rd & 11th St N",-77.116817,38.883921,0,47900,1,
"","Arlington","VA","Washington-Arlington-Alexandria DC-VA-MD-WV","N Randolph St & Fairfax Dr",-77.109366,38.882629,0,47900,1,
"","Arlington","VA","Washington-Arlington-Alexandria DC-VA-MD-WV","Ballston Metro / N Stuart & 9th St N",-77.111768,38.881044,0,47900,1,
"","Arlington","VA","Washington-Arlington-Alexandria DC-VA-MD-WV","Washington Blvd & 7th St N",-77.091129,38.880834,0,47900,1,
"","Arlington","VA","Washington-Arlington-Alexandria DC-VA-MD-WV","15th & N Scott St",-77.080950,38.890540,0,47900,1,
"","Arlington","VA","Washington-Arlington-Alexandria DC-VA-MD-WV","N Adams St & Lee Hwy",-77.089006,38.895930,0,47900,1,
"","Arlington","VA","Washington-Arlington-Alexandria DC-VA-MD-WV","N Veitch & Key Blvd",-77.086045,38.893241,0,47900,1,
"","Arlington","VA","Washington-Arlington-Alexandria DC-VA-MD-WV","George Mason Dr & Wilson Blvd",-77.120700,38.878870,0,47900,1,
"","Arlington","VA","Washington-Arlington-Alexandria DC-VA-MD-WV","Washington Blvd & 10th St N",-77.093485,38.884734,0,47900,1,
"","Arlington","VA","Washington-Arlington-Alexandria DC-VA-MD-WV","Central Library / N Quincy St & 10th St N",-77.107830,38.883970,0,47900,1,
"","Arlington","VA","Washington-Arlington-Alexandria DC-VA-MD-WV","Virginia Square Metro / N Monroe St & 9th St N",-77.103148,38.882788,0,47900,1,
"","Arlington","VA","Washington-Arlington-Alexandria DC-VA-MD-WV","Key Blvd & N Quinn St",-77.078107,38.896015,0,47900,1,
"","Arlington","VA","Washington-Arlington-Alexandria DC-VA-MD-WV","Fairfax Dr & Wilson Blvd",-77.097745,38.885801,0,47900,1,
"","Arlington","VA","Washington-Arlington-Alexandria DC-VA-MD-WV","N Veitch  & 20th St N",-77.086502,38.896923,0,47900,1,
"","Arlington","VA","Washington-Arlington-Alexandria DC-VA-MD-WV","Wilson Blvd & N Oakland St",-77.103960,38.881500,0,47900,1,
"","Arlington","VA","Washington-Arlington-Alexandria DC-VA-MD-WV","N Quincy St & Glebe Rd",-77.107735,38.876393,0,47900,1,
"","Arlington","VA","Washington-Arlington-Alexandria DC-VA-MD-WV","Clarendon Metro / Wilson Blvd & N Highland St",-77.094875,38.887860,0,47900,1,
"","Arlington","VA","Washington-Arlington-Alexandria DC-VA-MD-WV","Clarendon Blvd & N Fillmore St",-77.093080,38.888100,0,47900,1,
"","Arlington","VA","Washington-Arlington-Alexandria DC-VA-MD-WV","Wilson Blvd & Franklin Rd",-77.088900,38.890400,0,47900,1,
"","Arlington","VA","Washington-Arlington-Alexandria DC-VA-MD-WV","Wilson Blvd & N Edgewood St",-77.092500,38.889000,0,47900,1,
"","Arlington","VA","Washington-Arlington-Alexandria DC-VA-MD-WV","N Rhodes & 16th St N",-77.079375,38.892164,0,47900,1,
"","Arlington","VA","Washington-Arlington-Alexandria DC-VA-MD-WV","Wilson Blvd & N Uhle St",-77.084600,38.891696,0,47900,1,
"","Arlington","VA","Washington-Arlington-Alexandria DC-VA-MD-WV","Clarendon Blvd & Pierce St",-77.076701,38.893648,0,47900,1,
"","Arlington","VA","Washington-Arlington-Alexandria DC-VA-MD-WV","Rosslyn Metro / Wilson Blvd & Ft Myer Dr",-77.072305,38.894600,0,47900,1,
"","Arlington","VA","Washington-Arlington-Alexandria DC-VA-MD-WV","Lynn & 19th St North",-77.070993,38.897315,0,47900,1,
"","Arlington","VA","Washington-Arlington-Alexandria DC-VA-MD-WV","Potomac Ave & 35th St S",-77.050537,38.844015,0,47900,1,
"","Arlington","VA","Washington-Arlington-Alexandria DC-VA-MD-WV","23rd & Eads St",-77.053509,38.853531,0,47900,1,
"","Arlington","VA","Washington-Arlington-Alexandria DC-VA-MD-WV","26th & S Clark St",-77.051520,38.850688,0,47900,1,
"","Arlington","VA","Washington-Arlington-Alexandria DC-VA-MD-WV","23rd & Crystal Dr",-77.049800,38.853300,0,47900,1,
"","Arlington","VA","Washington-Arlington-Alexandria DC-VA-MD-WV","S Glebe & Potomac Ave",-77.050200,38.842600,0,47900,1,
"","Arlington","VA","Washington-Arlington-Alexandria DC-VA-MD-WV","27th & Crystal Dr",-77.051516,38.848441,0,47900,1,
"","Arlington","VA","Washington-Arlington-Alexandria DC-VA-MD-WV","12th & Army Navy Dr",-77.052800,38.862900,0,47900,1,
"","Arlington","VA","Washington-Arlington-Alexandria DC-VA-MD-WV","Crystal City Metro / 18th & Bell St",-77.051141,38.857063,0,47900,1,
"","Arlington","VA","Washington-Arlington-Alexandria DC-VA-MD-WV","S Joyce & Army Navy Dr",-77.063300,38.863700,0,47900,1,
"","Arlington","VA","Washington-Arlington-Alexandria DC-VA-MD-WV","Pentagon City Metro / 12th & S Hayes St",-77.059936,38.862303,0,47900,1,
"","Arlington","VA","Washington-Arlington-Alexandria DC-VA-MD-WV","Aurora Hills Community Ctr/18th & Hayes St",-77.059490,38.857866,0,47900,1,
"","Arlington","VA","Washington-Arlington-Alexandria DC-VA-MD-WV","15th & Crystal Dr",-77.049593,38.860170,0,47900,1,
"","Arlington","VA","Washington-Arlington-Alexandria DC-VA-MD-WV","20th & Crystal Dr",-77.049200,38.856400,0,47900,1,
"","Arlington","VA","Washington-Arlington-Alexandria DC-VA-MD-WV","18th & Eads St.",-77.053320,38.857250,0,47900,1,
"","Reston","VA","Washington-Arlington-Alexandria DC-VA-MD-WV","Wiehle-Reston East",-77.338918,38.948303,0,47900,1,
"","Reston","VA","Washington-Arlington-Alexandria DC-VA-MD-WV","Wiehle-Reston East",-77.339819,38.946868,0,47900,1,
"","Bristow","VA","Washington-Arlington-Alexandria DC-VA-MD-WV","Broad Run Airport Station",-77.527880,38.728130,0,47900,1,
"","Manassas","VA","Washington-Arlington-Alexandria DC-VA-MD-WV","Manassas Park Station",-77.441180,38.764920,0,47900,1,
"","Manassas","VA","Washington-Arlington-Alexandria DC-VA-MD-WV","Amtrak/VRE Station",-77.473850,38.750030,0,47900,1,
"","Manassas","VA","Washington-Arlington-Alexandria DC-VA-MD-WV","Amtrak/VRE Station",-77.473850,38.750030,0,47900,1,
"","St George","UT","St. George UT","",-113.583015,37.062810,0,41100,1,
"","St George","UT","St. George UT","St George airport",-113.508584,37.030578,1,41100,1,
"","Washington","UT","St. George UT","Maverik",-113.487746,37.144855,0,41100,1,
"","St George","UT","St. George UT","College Inn",-113.580605,37.109840,0,41100,1,
"","St George","UT","St. George UT","Crystal Inn",-113.585096,37.084259,0,41100,1,
"","St George","UT","St. George UT","McDonalds Restaurant",-113.585000,37.087800,0,41100,1,
"","Parowan","UT","Cedar City UT","",-112.830238,37.853128,0,16260,2,
"","Parowan","UT","Cedar City UT","",-112.830200,37.853100,0,16260,2,
"","Cedar City","UT","Cedar City UT","Shell Station",-113.076970,37.680910,0,16260,2,
"","Cedar City","UT","Cedar City UT","",-113.077280,37.680916,0,16260,2,
"","Cedar City","UT","Cedar City UT","",-113.081000,37.680600,0,16260,2,
"","Cedar City","UT","Cedar City UT","",-113.077500,37.680800,0,16260,2,
"","Beaver","UT","","",-112.653019,38.293043,3,,0,
"","Beaver","UT","","Flying J at Eagle's Landing",-112.653019,38.293043,3,,0,
"","Richfield","UT","","Phillips 66",-112.102688,38.750899,3,,0,
"","Spanish Fork","UT","Provo-Orem UT","Extra Mart",-111.643900,40.125050,3,39340,1,
"","Salina","UT","","Hollys Pantry Conoco",-111.860100,38.954952,3,,0,
"","Payson","UT","Provo-Orem UT","",-111.750290,40.031360,3,39340,1,
"","Nephi","UT","Provo-Orem UT","Flying J",-111.836424,39.685639,3,39340,1,
"","Nephi","UT","Provo-Orem UT","",-111.820600,39.710000,3,39340,1,
"","Mount Pleasant","UT","","Public library",-111.454770,39.546783,3,,0,
"","Moroni","UT","","Sampete Valley Conoco",-111.576090,39.524920,3,,0,
"","Manti","UT","","Top Shop Chevron",-111.636940,39.269920,3,,0,
"","Gunnison","UT","","Central Utah Correctional",-111.810359,39.150647,3,,0,
"","Meadow","UT","","Conoco Station",-112.410633,38.890328,3,,0,
"","Fillmore","UT","","",-112.345855,38.948219,3,,0,
"","Fillmore","UT","","Conoco Station",-112.346358,38.948847,3,,0,
"","Centerfield","UT","","Millers Chevron",-111.818971,39.137377,3,,0,
"","Ephraim","UT","","Snow College Student Center",-111.584159,39.360895,3,,0,
"","Provo","UT","Provo-Orem UT","Marriott Center",-111.650000,40.255500,3,39340,1,
"","Provo","UT","Provo-Orem UT","",-111.662110,40.242860,3,39340,1,
"","Provo","UT","Provo-Orem UT","Combos Provo",-111.674000,40.233400,3,39340,1,
"","Provo","UT","Provo-Orem UT","Amtrak Station",-111.662720,40.225870,3,39340,1,
"","Monticello","UT","","",-109.346660,37.866886,3,,0,
"","Monitcello","UT","","Shell Out West",-109.342934,37.872742,3,,0,
"","Moab","UT","","Town Center",-109.550810,38.568810,0,,0,
"","Moab","UT","","",-109.550760,38.575577,0,,0,
"","Helper","UT","Price UT","Amtrak Station",-110.852580,39.688200,3,39220,2,
"","Green River","UT","","Knights Inn",-110.149020,38.994926,3,,0,
"","Green River","UT","","Amtrak Station",-110.164600,38.992440,3,,0,
"","Blanding","UT","","Visitor's Center",-109.473441,37.625650,3,,0,
"","Blanding","UT","","Utah State Unversity Eastern",-109.487950,37.623943,3,,0,
"","Price","UT","Price UT","Walmart",-110.788566,39.596266,3,39220,2,
"","Pleasant View","UT","Ogden-Clearfield UT","Pleasant View Station",-112.011000,41.308100,3,36260,1,
"","Ogden","UT","Ogden-Clearfield UT","Greyhound Bus Station",-111.979000,41.222900,3,36260,1,
"","Ogden","UT","Ogden-Clearfield UT","Flying J",-112.006000,41.228100,3,36260,1,
"","Ogden","UT","Ogden-Clearfield UT","Roy Station",-112.037800,41.188900,3,36260,1,
"","Ogden","UT","Ogden-Clearfield UT","Ogden Station",-111.980000,41.225500,3,36260,1,
"","Logan","UT","Logan UT-ID","Holiday Express Inn",-111.834076,41.772846,3,30860,1,
"","Wellsville","UT","Logan UT-ID","Park and Ride",-111.933472,41.616090,3,30860,1,
"","Tremonton","UT","Ogden-Clearfield UT","",-112.203000,41.710900,3,36260,1,
"","Logan","UT","Logan UT-ID","University Inn",-111.811602,41.743044,3,30860,1,
"","Logan","UT","Logan UT-ID","Comfort Inn",-111.861499,41.695682,3,30860,1,
"","Logan","UT","Logan UT-ID","Cache Valley Transportation District",-111.830770,41.740890,3,30860,1,
"","Logan","UT","Logan UT-ID","",-111.831000,41.740600,3,30860,1,
"","Hyde Park","UT","Logan UT-ID","Salt Lake Express Office",-111.833468,41.800710,3,30860,1,
"","Brigham","UT","Ogden-Clearfield UT","Lw's Travel Plaza",-112.058122,41.485406,3,36260,1,
"","Salt Lake City","UT","Salt Lake City UT","",-111.892525,40.771553,0,41620,1,
"","Murray","UT","Salt Lake City UT","Texaco",-111.903730,40.674880,0,41620,1,
"","West Valley City","UT","Salt Lake City UT","parking lot of Salt Lake Indoor Swapmeet",-111.934006,40.697296,0,41620,1,
"","Salt Lake City","UT","Salt Lake City UT","City Front @ 640 West North Temple",-111.908720,40.771150,0,41620,1,
"","Salt Lake City","UT","Salt Lake City UT","Salt Lake City International Airport",-111.981000,40.785900,1,41620,1,
"","Salt Lake City","UT","Salt Lake City UT","MILLCREEK (3300 S) TRAX",-111.897000,40.701000,0,41620,1,
"","Salt Lake City","UT","Salt Lake City UT","CENTRAL POINTE (2100 S) TRAX",-111.897500,40.725400,0,41620,1,
"","Salt Lake City","UT","Salt Lake City UT","SOUTH CAMPUS",-111.838900,40.760400,0,41620,1,
"","Salt Lake City","UT","Salt Lake City UT","FT DOUGLAS",-111.836600,40.764400,0,41620,1,
"","Salt Lake City","UT","Salt Lake City UT","200S State Street Station",-111.888540,40.765180,0,41620,1,
"","Salt Lake City","UT","Salt Lake City UT","40E 300S Station",-111.889560,40.762720,0,41620,1,
"","Salt Lake City","UT","Salt Lake City UT","SLUG Mag Station",-111.885140,40.765210,0,41620,1,
"","Salt Lake City","UT","Salt Lake City UT","UCAIR Station @ City & County Building",-111.885210,40.759400,0,41620,1,
"","Salt Lake City","UT","Salt Lake City UT","Backcountry.com @ 100S Main Street",-111.890910,40.767320,0,41620,1,
"","Salt Lake City","UT","Salt Lake City UT","3 & 3 UNCOMMONS Station",-111.883170,40.762990,0,41620,1,
"","Salt Lake City","UT","Salt Lake City UT","Tour of Utah Station",-111.885090,40.761560,0,41620,1,
"","Salt Lake City","UT","Salt Lake City UT","CityScape Station",-111.879900,40.765210,0,41620,1,
"","Salt Lake City","UT","Salt Lake City UT","TravelWise Station",-111.886640,40.762740,0,41620,1,
"","Salt Lake City","UT","Salt Lake City UT","Rocky Mountain Power Station",-111.890900,40.764040,0,41620,1,
"","Salt Lake City","UT","Salt Lake City UT","Phillips Edison & Co. Station",-111.890910,40.761400,0,41620,1,
"","Salt Lake City","UT","Salt Lake City UT","Harmons Station",-111.887360,40.767450,0,41620,1,
"","Salt Lake City","UT","Salt Lake City UT","LIBRARY TRAX STATION",-111.885300,40.760600,0,41620,1,
"","Midvale","UT","Salt Lake City UT","MIDVALE FT UNION (7200 S) TRAX",-111.898300,40.619200,0,41620,1,
"","Salt Lake City","UT","Salt Lake City UT","FASHION PLACE WEST (6400 S) TRAX",-111.898300,40.633500,0,41620,1,
"","Murray","UT","Salt Lake City UT","MURRAY NORTH (4500 S) TRAX",-111.894100,40.676900,0,41620,1,
"","Murray","UT","Salt Lake City UT","MURRAY CENTRAL (5300 S) TRAX",-111.895500,40.660000,0,41620,1,
"","Salt Lake City","UT","Salt Lake City UT","MEADOWBROOK (3900 S) TRAX",-111.896600,40.687600,0,41620,1,
"","Salt Lake City","UT","Salt Lake City UT","UTA FrontLines Station",-111.911340,40.764730,0,41620,1,
"","Salt Lake City","UT","Salt Lake City UT","UTA North Temple FrontRunner Station",-111.904970,40.771850,0,41620,1,
"","Salt Lake City","UT","Salt Lake City UT","Fidelity Station @ The Gateway",-111.902730,40.769710,0,41620,1,
"","Salt Lake City","UT","Salt Lake City UT","MEDICAL CENTER",-111.835200,40.771900,0,41620,1,
"","Salt Lake City","UT","Salt Lake City UT","Google Fiber Station @ Trolley Square",-111.871520,40.758000,0,41620,1,
"","Salt Lake City","UT","Salt Lake City UT","300S 500E Station",-111.876940,40.763060,0,41620,1,
"","Salt Lake City","UT","Salt Lake City UT"," 100S 500E Station",-111.876640,40.767440,0,41620,1,
"","Salt Lake City","UT","Salt Lake City UT","900 EAST & 400 SOUTH (TRAX)",-111.865300,40.760600,0,41620,1,
"","Salt Lake City","UT","Salt Lake City UT","STADIUM TRAX STATION",-111.852700,40.758600,0,41620,1,
"","Salt Lake City","UT","Salt Lake City UT","TROLLEY TRAX STATION",-111.874000,40.760600,0,41620,1,
"","Salt Lake City","UT","Salt Lake City UT","250S 200W Station",-111.896690,40.763850,0,41620,1,
"","Salt Lake City","UT","Salt Lake City UT","450W 100S Station @ Gateway",-111.903830,40.767080,0,41620,1,
"","Salt Lake City","UT","Salt Lake City UT","300W South Temple Station",-111.900040,40.769140,0,41620,1,
"","Salt Lake City","UT","Salt Lake City UT","UCAIR Station @ Pioneer Park",-111.900170,40.762840,0,41620,1,
"","Salt Lake City","UT","Salt Lake City UT","Backcountry.com Station @ Visit Salt Lake",-111.894400,40.767570,0,41620,1,
"","Salt Lake City","UT","Salt Lake City UT","Union Pacific Station",-111.901430,40.765110,0,41620,1,
"","Salt Lake City","UT","Salt Lake City UT","50 W 300 S",-111.892410,40.762830,0,41620,1,
"","Salt Lake City","UT","Salt Lake City UT","Sheraton Station",-111.895410,40.758650,0,41620,1,
"","Salt Lake City","UT","Salt Lake City UT","Radisson Station 215 West South Temple",-111.897100,40.769170,0,41620,1,
"","Salt Lake City","UT","Salt Lake City UT","quatters Station @ The Rose",-111.895410,40.762660,0,41620,1,
"","Salt Lake City","UT","Salt Lake City UT","Life Elevated Station @ The Salt Palace",-111.894530,40.765170,0,41620,1,
"","Salt Lake City","UT","Salt Lake City UT","Energy Development Station",-111.891550,40.766100,0,41620,1,
"","Salt Lake City","UT","Salt Lake City UT","UTA Salt Lake Central Station",-111.908100,40.763080,0,41620,1,
"","Salt Lake City","UT","Salt Lake City UT","Key Bank Station @ Temple Square",-111.891310,40.769090,0,41620,1,
"","Salt Lake City","UT","Salt Lake City UT","Salt Lake City Central Station",-111.902380,40.762020,0,41620,1,
"","Salt Lake City","UT","Salt Lake City UT","SL Central Station",-111.908400,40.763800,0,41620,1,
"","Salt Lake City","UT","Salt Lake City UT","Planetarium TRAX Station",-111.902600,40.764900,0,41620,1,
"","Salt Lake City","UT","Salt Lake City UT","900 S Station",-111.896800,40.750400,0,41620,1,
"","Salt Lake City","UT","Salt Lake City UT","Old GreekTown TRAX Station",-111.905500,40.764900,0,41620,1,
"","Salt Lake City","UT","Salt Lake City UT","GALLIVAN PLAZA TRAX",-111.891100,40.763600,0,41620,1,
"","Salt Lake City","UT","Salt Lake City UT","COURT HOUSE TRAX",-111.891300,40.759600,0,41620,1,
"","Salt Lake City","UT","Salt Lake City UT","CITY CENTER (100 S) TRAX",-111.891200,40.767100,0,41620,1,
"","Salt Lake City","UT","Salt Lake City UT","BALLPARK (1300 S) TRAX",-111.896300,40.741700,0,41620,1,
"","Salt Lake City","UT","Salt Lake City UT","ARENA TRAX",-111.899800,40.769200,0,41620,1,
"","Salt Lake City","UT","Salt Lake City UT","TEMPLE SQUARE TRAX",-111.895300,40.769400,0,41620,1,
"","Salt Lake City","UT","Salt Lake City UT","Greyhound Bus Station",-111.908000,40.762400,0,41620,1,
"","Salt Lake City","UT","Salt Lake City UT","Salt Lake City Central Station",-111.902380,40.762020,0,41620,1,
"","Woods Cross","UT","Ogden-Clearfield UT","Woods Cross Station",-111.901600,40.883800,3,36260,1,
"","Sandy","UT","Salt Lake City UT","SANDY CIVIC CTR (10000 S) TRAX",-111.896200,40.569800,0,41620,1,
"","Sandy","UT","Salt Lake City UT","HISTORIC SANDY (9000 S) TRAX",-111.885700,40.589300,0,41620,1,
"","Sandy","UT","Salt Lake City UT","Sandy Expo Station",-111.886300,40.581400,0,41620,1,
"","Sandy","UT","Salt Lake City UT","",-111.894000,40.558800,0,41620,1,
"","Roosevelt","UT","","Jiffy Enterprises Inc",-109.987372,40.302122,3,,0,
"","Myton","UT","","",-109.989700,40.293600,3,,0,
"","Orem","UT","Provo-Orem UT","",-111.693920,40.294630,3,39340,1,
"","Orem","UT","Provo-Orem UT","",-111.711700,40.271400,3,39340,1,
"","Midvale","UT","Salt Lake City UT","MIDVALE CENTER (7720 S) TRAX",-111.893400,40.610600,0,41620,1,
"","Layton","UT","Ogden-Clearfield UT","Layton Station",-111.965000,41.056700,3,36260,1,
"","Heber City","UT","Heber UT","",-111.408700,40.487800,3,25720,2,
"","Farmington","UT","Ogden-Clearfield UT","Farmington Station",-111.899500,40.983300,3,36260,1,
"","Duchesne","UT","","Gateway 66",-110.412100,40.163500,3,,0,
"","Draper","UT","Salt Lake City UT","7 Eleven Station",-111.895700,40.527405,0,41620,1,
"","Clearfield","UT","Ogden-Clearfield UT","Clearfield Station",-112.007600,41.095700,3,36260,1,
"","American Fork","UT","Provo-Orem UT","Park and Ride",-111.822495,40.377620,3,39340,1,
"","Park City","UT","Summit Park UT","",-111.538960,40.722830,3,44920,2,
"","Vernal","UT","Vernal UT","KFC",-109.555060,40.448140,0,46860,2,
"","El Paso","TX","El Paso TX","UTEP Sun Bowl Drive South",-106.507120,31.770480,0,21340,1,
"","El Paso","TX","El Paso TX","UTEP Library",-106.504850,31.767820,0,21340,1,
"","El Paso","TX","El Paso TX","Mundy Park",-106.501260,31.763920,0,21340,1,
"","El Paso","TX","El Paso TX","UTEP Academic Services",-106.502090,31.766630,0,21340,1,
"","El Paso","TX","El Paso TX","UTEP Sun Bowl Drive North",-106.509310,31.782890,0,21340,1,
"","El Paso","TX","El Paso TX","Oregon & University",-106.501010,31.772930,0,21340,1,
"","El Paso","TX","El Paso TX","EPCC",-106.493580,31.763240,0,21340,1,
"","El Paso","TX","El Paso TX","El Paso County Courthouse",-106.483950,31.758770,0,21340,1,
"","El Paso","TX","El Paso TX","San Jacinto Plaza",-106.488590,31.759550,0,21340,1,
"","El Paso","TX","El Paso TX","Ballpark West Durango",-106.493410,31.758390,0,21340,1,
"","El Paso","TX","El Paso TX","Anthony Street",-106.494180,31.756880,0,21340,1,
"","El Paso","TX","El Paso TX","Pioneer Plaza",-106.488910,31.758460,0,21340,1,
"","El Paso","TX","El Paso TX","Cleveland Square",-106.491600,31.759580,0,21340,1,
"","El Paso","TX","El Paso TX","Downtown Transfer Center",-106.488300,31.753430,0,21340,1,
"","El Paso","TX","El Paso TX","City Hall",-106.485070,31.761480,0,21340,1,
"","El Paso","TX","El Paso TX","Greyhound Station",-106.490000,31.757300,0,21340,1,
"","El Paso","TX","El Paso TX","Autobuses Americanos Station",-106.488000,31.749400,0,21340,1,
"","El Paso","TX","El Paso TX","Amtrak Station",-106.494890,31.757730,0,21340,1,
"","Van Horn","TX","","Pilot Travel Center",-104.831000,31.037200,3,,0,
"","Sanderson","TX","","Amtrak Station",-102.399060,30.140100,3,,0,
"","Salt Flat","TX","El Paso TX","Salt Flat Cafi",-105.077600,31.744900,0,21340,1,
"","Presidio","TX","","",-104.369634,29.573210,3,,0,
"","Marfa","TX","","Big Bend Community Action",-104.037214,30.306150,3,,0,
"","Alpine","TX","Lake Charles LA","KCS Quick Stop",-93.111000,30.232600,3,29340,1,
"","Alpine","TX","","Amtrak Station",-103.661040,30.357160,3,,0,
"","Pecos","TX","Pecos TX","Quick Stop Convenience Store",-103.504000,31.423000,3,37780,2,
"","Austin","TX","Austin-Round Rock TX","Crestview",-97.719258,30.338005,0,12420,1,
"","Austin","TX","Austin-Round Rock TX","Highland",-97.716187,30.328571,0,12420,1,
"","Big Spring","TX","Big Spring TX","Greyhound Bus Station",-101.475000,32.253600,3,13700,2,
"","Abilene","TX","Abilene TX","",-99.697660,32.478140,0,10180,1,
"","Sweetwater","TX","Sweetwater TX","Hilltop Sales",-100.405000,32.468500,3,45020,2,
"","Snyder","TX","Snyder TX","Rip Griffin Travel Center",-100.866000,32.705600,3,43660,2,
"","Lubbock","TX","Lubbock TX","Citibus Downtown Transit Plaza",-101.843000,33.584500,0,31180,1,
"","Seminole","TX","","Anderson Welding",-102.644000,32.711300,3,,0,
"","Levelland","TX","Levelland TX","",-102.384460,33.550404,3,30220,2,
"","Lamesa","TX","Lamesa TX","Lamesa Bus Station",-101.951000,32.733600,3,29500,2,
"","Brownfield","TX","","",-102.274086,33.188675,3,,0,
"","Childress","TX","","Shipping and Storage",-100.224821,34.434042,3,,0,
"","Amarillo","TX","Amarillo TX","Greyhound Bus Station",-101.839000,35.206800,0,11100,1,
"","Plainview","TX","Plainview TX","Fast Stop 28",-101.749000,34.187300,3,38380,2,
"","Hereford","TX","Hereford TX","Hereford Bus Station",-102.382800,34.822400,3,25820,2,
"","Friona","TX","","Hernandez Restaurant",-102.728025,34.641587,3,,0,
"","Dumas","TX","Dumas TX","W R Enterprises",-101.973000,35.863000,3,20300,2,
"","Schulenburg Weimar","TX","","",-96.776120,29.690670,3,,0,
"","Eagle Pass","TX","Eagle Pass TX","",-100.476550,28.719536,3,20580,2,
"","Del Rio","TX","Del Rio TX","",-100.904457,29.378981,0,19620,2,
"","Del Rio","TX","Del Rio TX","Del Rio Multimodal Transportation Center",-100.901470,29.363080,0,19620,2,
"","Uvalde","TX","Uvalde TX","",-99.895946,29.205105,3,46620,2,
"","Austin","TX","Austin-Round Rock TX","Kramer",-97.716360,30.392772,0,12420,1,
"","Mccamey","TX","","La Bonita Inn and Suites",-102.222921,31.136994,3,,0,
"","Austin","TX","Austin-Round Rock TX","Guadalupe & 21st",-97.741980,30.283950,0,12420,1,
"","Austin","TX","Austin-Round Rock TX","Greyhound Bus Station",-97.710500,30.321700,0,12420,1,
"","Austin","TX","Austin-Round Rock TX","Zilker Park at Barton Springs & William Barton Drive",-97.768220,30.265900,0,12420,1,
"","Austin","TX","Austin-Round Rock TX","Barton Springs Pool",-97.771200,30.264520,0,12420,1,
"","Crane","TX","","",-102.351770,31.394176,3,,0,
"","Austin","TX","Austin-Round Rock TX","Howard",-97.701548,30.440120,0,12420,1,
"","Austin","TX","Austin-Round Rock TX","Lakeline",-97.786945,30.481058,0,12420,1,
"","Austin","TX","Austin-Round Rock TX","",-97.740910,30.282566,0,12420,1,
"","Austin","TX","Austin-Round Rock TX","Trinity & 6th Street",-97.739330,30.267350,0,12420,1,
"","Austin","TX","Austin-Round Rock TX","UT West Mall @ Guadalupe",-97.741810,30.285760,0,12420,1,
"","Austin","TX","Austin-Round Rock TX","South Congress & Barton Springs at the Austin American-State",-97.745920,30.258390,0,12420,1,
"","Austin","TX","Austin-Round Rock TX","Barton Springs @ Kinney Ave",-97.761180,30.262000,0,12420,1,
"","Austin","TX","Austin-Round Rock TX","Riverside @ S. Lamar",-97.756650,30.264460,0,12420,1,
"","Austin","TX","Austin-Round Rock TX","South Congress & Academy",-97.748540,30.252260,0,12420,1,
"","Austin","TX","Austin-Round Rock TX","Palmer Auditorium",-97.753460,30.259710,0,12420,1,
"","Austin","TX","Austin-Round Rock TX","Long Center @ South 1st & Riverside",-97.749710,30.259410,0,12420,1,
"","Austin","TX","Austin-Round Rock TX","South Congress & Elizabeth",-97.750190,30.248910,0,12420,1,
"","Austin","TX","Austin-Round Rock TX","South Congress & James",-97.749260,30.251030,0,12420,1,
"","Austin","TX","Austin-Round Rock TX","Barton Springs & Riverside",-97.748720,30.258700,0,12420,1,
"","Austin","TX","Austin-Round Rock TX","Pease Park",-97.752190,30.281180,0,12420,1,
"","Austin","TX","Austin-Round Rock TX","MoPac Pedestrian Bridge @ Veterans Drive",-97.770280,30.274660,0,12420,1,
"","Austin","TX","Austin-Round Rock TX","Pfluger Bridge @ W 2nd Street",-97.754840,30.267170,0,12420,1,
"","Austin","TX","Austin-Round Rock TX","3rd & West",-97.751890,30.267800,0,12420,1,
"","Austin","TX","Austin-Round Rock TX","5th & Bowie",-97.753320,30.269600,0,12420,1,
"","Austin","TX","Austin-Round Rock TX","Amtrak Station",-97.755570,30.269090,0,12420,1,
"","Austin","TX","Austin-Round Rock TX","East 7th & Pleasant Valley",-97.710020,30.260250,0,12420,1,
"","Austin","TX","Austin-Round Rock TX","East 2nd & Pedernales",-97.716650,30.255420,0,12420,1,
"","Austin","TX","Austin-Round Rock TX","East 4th & Chicon",-97.723080,30.259680,0,12420,1,
"","Austin","TX","Austin-Round Rock TX","MLK Jr",-97.709421,30.279931,0,12420,1,
"","Austin","TX","Austin-Round Rock TX","Plaza Saltillo",-97.727274,30.261924,0,12420,1,
"","Austin","TX","Austin-Round Rock TX","Capital Metro HQ - East 5th at Broadway",-97.710070,30.256300,0,12420,1,
"","Austin","TX","Austin-Round Rock TX","East 6th at Robert Martinez",-97.718990,30.260320,0,12420,1,
"","Austin","TX","Austin-Round Rock TX","East 11th St. & San Marcos",-97.730740,30.269680,0,12420,1,
"","Austin","TX","Austin-Round Rock TX","East 11th St. at Victory Grill",-97.728430,30.268960,0,12420,1,
"","Austin","TX","Austin-Round Rock TX","5th & San Marcos",-97.732890,30.264160,0,12420,1,
"","Austin","TX","Austin-Round Rock TX","East 6th & Pedernales St.",-97.714750,30.258950,0,12420,1,
"","Austin","TX","Austin-Round Rock TX","Plaza Saltillo",-97.727430,30.262170,0,12420,1,
"","Austin","TX","Austin-Round Rock TX","Republic Square @ Federal Courthouse Plaza",-97.748050,30.267530,0,12420,1,
"","Austin","TX","Austin-Round Rock TX","Brazos & 6th",-97.741540,30.267540,0,12420,1,
"","Austin","TX","Austin-Round Rock TX","Lavaca & 6th",-97.745230,30.268890,0,12420,1,
"","Austin","TX","Austin-Round Rock TX","11th & San Jacinto",-97.738540,30.271930,0,12420,1,
"","Newark","NJ","New York-Newark-Jersey City NY-NJ-PA","Atlantic Street",-74.168700,40.744700,0,35620,1,
"","Newark","NJ","New York-Newark-Jersey City NY-NJ-PA","Riverfront Stadium",-74.170300,40.746300,0,35620,1,
"","Newark","NJ","New York-Newark-Jersey City NY-NJ-PA","Newark Penn Station Light Rail",-74.164000,40.734600,0,35620,1,
"","Newark","NJ","New York-Newark-Jersey City NY-NJ-PA","NJPAC/Center Street",-74.165300,40.739000,0,35620,1,
"","Newark","NJ","New York-Newark-Jersey City NY-NJ-PA","Military Park",-74.170800,40.737500,0,35620,1,
"","Newark","NJ","New York-Newark-Jersey City NY-NJ-PA","Broad Street",-74.170300,40.746500,0,35620,1,
"","Newark","NJ","New York-Newark-Jersey City NY-NJ-PA","Washington Street",-74.173800,40.738300,0,35620,1,
"","Newark","NJ","New York-Newark-Jersey City NY-NJ-PA","Newark PATH Station",-74.164200,40.735400,0,35620,1,
"","Newark","NJ","New York-Newark-Jersey City NY-NJ-PA","Penn Station",-74.165000,40.733700,0,35620,1,
"","Newark","NJ","New York-Newark-Jersey City NY-NJ-PA","Penn Station",-74.164890,40.734280,0,35620,1,
"","Newark","NJ","New York-Newark-Jersey City NY-NJ-PA","Newark Broad Street",-74.171940,40.747620,0,35620,1,
"","Woodbridge","NJ","New York-Newark-Jersey City NY-NJ-PA","Avenel",-74.277510,40.577160,0,35620,1,
"","Secaucus","NJ","New York-Newark-Jersey City NY-NJ-PA","Frank R. Lautenberg Station at Secaucus Junction",-74.073894,40.761522,0,35620,1,
"","Secaucus","NJ","New York-Newark-Jersey City NY-NJ-PA","Secaucus Jct",-74.075820,40.761190,0,35620,1,
"","Westfield","NJ","New York-Newark-Jersey City NY-NJ-PA","Westfield",-74.347630,40.649450,0,35620,1,
"","Union City","NJ","New York-Newark-Jersey City NY-NJ-PA","Bergenline Avenue",-74.021800,40.781600,0,35620,1,
"","Weehawken","NJ","New York-Newark-Jersey City NY-NJ-PA","Port Imperial",-74.012000,40.771800,0,35620,1,
"","Weehawken","NJ","New York-Newark-Jersey City NY-NJ-PA","Lincoln Harbor",-74.020720,40.759300,0,35620,1,
"","Weehawken","NJ","New York-Newark-Jersey City NY-NJ-PA","Port Imperial",-74.012800,40.775800,0,35620,1,
"","Weehawken","NJ","New York-Newark-Jersey City NY-NJ-PA","Lincoln Harbor",-74.023900,40.761700,0,35620,1,
"","Springfield","PA","Philadelphia-Camden-Wilmington PA-NJ-DE-MD","Springfield Rd - Route 101",-75.330800,39.934700,0,37980,1,
"","Springfield","PA","Philadelphia-Camden-Wilmington PA-NJ-DE-MD","Scenic Rd",-75.326700,39.941000,0,37980,1,
"","Springfield","PA","Philadelphia-Camden-Wilmington PA-NJ-DE-MD","Paper Mill Rd",-75.357900,39.915300,0,37980,1,
"","Media","PA","Philadelphia-Camden-Wilmington PA-NJ-DE-MD","Orange St",-75.393000,39.918400,0,37980,1,
"","Media","PA","Philadelphia-Camden-Wilmington PA-NJ-DE-MD","Veterans Sq",-75.392000,39.918300,0,37980,1,
"","Media","PA","Philadelphia-Camden-Wilmington PA-NJ-DE-MD","Olive St",-75.391000,39.918100,0,37980,1,
"","Media","PA","Philadelphia-Camden-Wilmington PA-NJ-DE-MD","Jackson St",-75.389400,39.917900,0,37980,1,
"","Media","PA","Philadelphia-Camden-Wilmington PA-NJ-DE-MD","Monroe St",-75.387600,39.917700,0,37980,1,
"","Media","PA","Philadelphia-Camden-Wilmington PA-NJ-DE-MD","Edgmont St",-75.385600,39.917400,0,37980,1,
"","Media","PA","Philadelphia-Camden-Wilmington PA-NJ-DE-MD","Manchester Ave",-75.382800,39.917000,0,37980,1,
"","Media","PA","Philadelphia-Camden-Wilmington PA-NJ-DE-MD","Providence Rd",-75.381000,39.916800,0,37980,1,
"","Springfield","PA","Philadelphia-Camden-Wilmington PA-NJ-DE-MD","Pine Ridge",-75.369700,39.915500,0,37980,1,
"","Media","PA","Philadelphia-Camden-Wilmington PA-NJ-DE-MD","Beatty Rd",-75.376500,39.916600,0,37980,1,
"","Media","PA","Philadelphia-Camden-Wilmington PA-NJ-DE-MD","Media Station",-75.394610,39.914300,0,37980,1,
"","Elwyn","PA","Philadelphia-Camden-Wilmington PA-NJ-DE-MD","Elwyn Station",-75.415500,39.905130,0,37980,1,
"","Marcus Hook","PA","Philadelphia-Camden-Wilmington PA-NJ-DE-MD","Marcus Hook Station",-75.419060,39.821960,0,37980,1,
"","Tullytown","PA","Philadelphia-Camden-Wilmington PA-NJ-DE-MD","Levittown Station",-74.817390,40.139640,0,37980,1,
"","Trevose","PA","Philadelphia-Camden-Wilmington PA-NJ-DE-MD","Trevose Station",-74.982560,40.140260,0,37980,1,
"","Philadelphia","PA","Philadelphia-Camden-Wilmington PA-NJ-DE-MD","Highland Station",-75.392780,39.833680,0,37980,1,
"","Yeadon","PA","Philadelphia-Camden-Wilmington PA-NJ-DE-MD","Yeadon",-75.246200,39.926500,0,37980,1,
"","Philadelphia","PA","Philadelphia-Camden-Wilmington PA-NJ-DE-MD","Lansdowne Station",-75.271570,39.937110,0,37980,1,
"","Lansdowne","PA","Philadelphia-Camden-Wilmington PA-NJ-DE-MD","Gladstone Station",-75.281980,39.932650,0,37980,1,
"","Woodbourne","PA","Philadelphia-Camden-Wilmington PA-NJ-DE-MD","Woodbourne Station",-74.890140,40.191380,0,37980,1,
"","Langhorne","PA","Philadelphia-Camden-Wilmington PA-NJ-DE-MD","Langhorne Station",-74.912240,40.160820,0,37980,1,
"","Jenkintown","PA","Philadelphia-Camden-Wilmington PA-NJ-DE-MD","Jenkintown Station",-75.137580,40.092640,0,37980,1,
"","Jenkintown","PA","Philadelphia-Camden-Wilmington PA-NJ-DE-MD","Rydal Station",-75.110340,40.107240,0,37980,1,
"","Jenkintown","PA","Philadelphia-Camden-Wilmington PA-NJ-DE-MD","Neshaminy Falls Station",-74.961000,40.147300,0,37980,1,
"","Jenkintown","PA","Philadelphia-Camden-Wilmington PA-NJ-DE-MD","Meadowbrook Station",-75.090950,40.111470,0,37980,1,
"","Jenkintown","PA","Philadelphia-Camden-Wilmington PA-NJ-DE-MD","Noble",-75.125200,40.104040,0,37980,1,
"","Haverford","PA","Philadelphia-Camden-Wilmington PA-NJ-DE-MD","Haverford Station",-75.300330,40.014180,0,37980,1,
"","Haverford","PA","Philadelphia-Camden-Wilmington PA-NJ-DE-MD","Haverford",-75.315300,40.011500,0,37980,1,
"","Hatboro","PA","Philadelphia-Camden-Wilmington PA-NJ-DE-MD","Hatboro Station",-75.102780,40.175200,0,37980,1,
"","North Hills","PA","Philadelphia-Camden-Wilmington PA-NJ-DE-MD","North Hills",-75.169650,40.112070,0,37980,1,
"","Glenside","PA","Philadelphia-Camden-Wilmington PA-NJ-DE-MD","Glenside",-75.153150,40.101150,0,37980,1,
"","Glenside","PA","Philadelphia-Camden-Wilmington PA-NJ-DE-MD","Ardsley",-75.153310,40.113670,0,37980,1,
"","Glenolden","PA","Philadelphia-Camden-Wilmington PA-NJ-DE-MD","Glenolden Station",-75.293720,39.894460,0,37980,1,
"","Fort Washington","PA","Philadelphia-Camden-Wilmington PA-NJ-DE-MD","Fort Washington",-75.212530,40.135880,0,37980,1,
"","Folcroft","PA","Philadelphia-Camden-Wilmington PA-NJ-DE-MD","Folcroft Station",-75.279700,39.900560,0,37980,1,
"","Melrose Park","PA","Philadelphia-Camden-Wilmington PA-NJ-DE-MD","Melrose Park Station",-75.128910,40.059670,0,37980,1,
"","Elkins Park","PA","Philadelphia-Camden-Wilmington PA-NJ-DE-MD","Elkins Park Station",-75.127680,40.071200,0,37980,1,
"","Drexel Hill","PA","Philadelphia-Camden-Wilmington PA-NJ-DE-MD","School Lane",-75.299300,39.948800,0,37980,1,
"","Drexel Hill","PA","Philadelphia-Camden-Wilmington PA-NJ-DE-MD","Huey Ave",-75.298100,39.947200,0,37980,1,
"","Drexel Hill","PA","Philadelphia-Camden-Wilmington PA-NJ-DE-MD","Creek Rd",-75.295200,39.935100,0,37980,1,
"","Drexel Hill","PA","Philadelphia-Camden-Wilmington PA-NJ-DE-MD","Marshell Rd",-75.296900,39.939800,0,37980,1,
"","Drexel Hill","PA","Philadelphia-Camden-Wilmington PA-NJ-DE-MD","Drexel Manor",-75.296200,39.943200,0,37980,1,
"","Upper Darby","PA","Philadelphia-Camden-Wilmington PA-NJ-DE-MD","Congress Ave",-75.279000,39.952900,0,37980,1,
"","Drexel Hill","PA","Philadelphia-Camden-Wilmington PA-NJ-DE-MD","Garrettford",-75.296200,39.944800,0,37980,1,
"","Drexel Hill","PA","Philadelphia-Camden-Wilmington PA-NJ-DE-MD","Drexeline",-75.321500,39.944800,0,37980,1,
"","Drexel Hill","PA","Philadelphia-Camden-Wilmington PA-NJ-DE-MD","Drexel Hill Junction",-75.293000,39.947100,0,37980,1,
"","Drexel Hill","PA","Philadelphia-Camden-Wilmington PA-NJ-DE-MD","Drexelbrook",-75.316000,39.947200,0,37980,1,
"","Drexel Hill","PA","Philadelphia-Camden-Wilmington PA-NJ-DE-MD","Irvington Rd",-75.289400,39.949100,0,37980,1,
"","Drexel Hill","PA","Philadelphia-Camden-Wilmington PA-NJ-DE-MD","Drexel Park",-75.287100,39.950200,0,37980,1,
"","Drexel Hill","PA","Philadelphia-Camden-Wilmington PA-NJ-DE-MD","Anderson Ave",-75.313100,39.948300,0,37980,1,
"","Upper Darby","PA","Philadelphia-Camden-Wilmington PA-NJ-DE-MD","Lansdowne Ave",-75.282000,39.951500,0,37980,1,
"","Drexel Hill","PA","Philadelphia-Camden-Wilmington PA-NJ-DE-MD","Aronimink",-75.306400,39.949200,0,37980,1,
